region_id;parent_id;regionname;cityname;code;stat;timezone;active;lat;lon;en_regionname;en_cityname;es_regionname;es_cityname;de_regionname;de_cityname;it_regionname;it_cityname;fr_regionname;fr_cityname
3430;46;;Яя;;0.000000;Asia/Novokuznetsk;0;56.200500;86.431587;Yaya;;Yaya;;Jaja;;Yaya;;Iaïa;
1023;6;;Яшкуль;;0.000000;Europe/Moscow;0;46.171041;45.341765;Yashkul;;Yashkul;;Jaschkul;;Yashkul;;Yashkul';
3429;46;;Яшкино;;0.000000;Asia/Novokuznetsk;0;55.876577;85.431194;Yashkino;;Yashkino;;Jaschkino;;Yashkino;;Iachkino;
1022;6;;Яшалта;;0.000000;Europe/Moscow;0;46.338250;42.272564;Yashalta;;Yashalta;;Jaschalta;;Yashalta;;Yashalta;
787;70;;Яхрома;;0.000000;Europe/Moscow;0;56.287553;37.477333;Yakhroma;;Yakhroma;;Jachroma;;Jachroma;;Iakhroma;
2281;448;;Яхимов;;0.000000;Europe/Prague;0;50.367000;12.917000;Jachymov;;Jáchymov;;Jachymov;;Jáchymov;;Jachyrnov;
1606;241;;Яунде;;0.000000;Africa/Douala;0;3.848642;11.498112;Yaounde;;Yaundé;;Yaoundé;;Yaoundé;;Yaoundé;
1980;186;;Яссы;;0.000000;Europe/Bucharest;0;47.159122;27.587851;Iasi;;Jasi;;Iasi;;Jasi;;Jasi;
822;94;;Ясный;;0.000000;Asia/Yekaterinburg;0;51.035411;59.885996;Yasny;;Yasny;;Jasny;;Jasnyj;;Iasny;
2621;127;;Ясногорск;;0.000000;Europe/Moscow;0;54.478433;37.691717;Yasnogorsk;;Yasnogorsk;;Jasnogorsk;;Jasnogorsk;;Iasnogorsk;
2009;195;;Ясна;;0.000000;Europe/Bratislava;0;48.900000;19.500000;Jasna;;Jasna;;Jasna;;Jasna;;Jasna;
4337;260;;Ясиноватая;;0.000000;Europe/Zaporozhye;0;47.127000;37.853000;Yasynuvata;;Yasynuvata;;Jassynuwata;;Yasynuvata;;Yasinouvata;
2544;112;;Ярцево;;0.000000;Europe/Moscow;0;55.064530;32.698466;Yartsevo;;Yartsevo;;Jarzewo;;Jarcevo;;Iartsevo;
147;188;Ярославская область;Ярославль;;0.002734;Europe/Moscow;1;57.637479;39.854156;Yaroslavl;Yaroslavl Oblast;Yaroslavl;Óblast de Yaroslavl;Jaroslawl;Oblast Jaroslawl;Jaroslavl';Oblast' di Jaroslavl';Iaroslavl;Oblast de Iaroslavl
2989;7;;Яровое;;0.000000;Asia/Barnaul;0;52.929763;78.619709;Yarovoye;;Yarovoie;;Jarowoje;;Jarovoe;;Iarovoïe;
4712;278;;Ярмолинцы;;0.000000;Europe/Kiev;0;49.192000;26.839000;Yarmolyntsi;;Yarmolyntsi;;Jarmolynzi;;Yarmolyntsi;;Yarmolyntsi;
2640;128;;Ярково;;0.000000;Asia/Yekaterinburg;0;57.398547;67.062436;Yarkovo;;Yarkovo;;Jarkowo;;Jarkovo;;Yarkovo;
2924;3;;Яренск;;0.000000;Europe/Moscow;0;62.176292;49.090244;Yarensk;;Yarensk;;Jarensk;;Jarensk;;Iarensk;
4408;264;;Яремча;;0.000000;Europe/Uzhgorod;0;48.460000;24.558000;Yaremche;;Yaremche;;Jaremtsche;;Jaremča;;Yaremtcha;
3467;22;;Яранск;;0.000000;Europe/Kirov;0;57.300309;47.855967;Yaransk;;Yaransk;;Jaransk;;Jaransk;;Iaransk;
886;172;;Яр-Сале;;0.000000;Asia/Yekaterinburg;0;66.863005;70.835297;Yar-Sale;;Yar-Sale;;Jar-Sale;;Jar-Sale;;Yar-Sale;
3287;39;;Яр;;0.000000;Europe/Samara;0;58.245832;52.106772;Yar;;Yar;;Jar;;Yar;;Yar;
1725;248;;Яньчи;;0.000000;Asia/Urumqi;0;37.783000;107.400000;Yanqi;;Yanqi;;Yanqi;;Karasahr;;Yanqi;
2813;140;;Янтиково;;0.000000;Europe/Moscow;0;55.511566;47.774648;Yantikovo;;Yantikovo;;Jantikowo;;Yantikovo;;Iantikovo;
3382;43;;Янтарный;;0.000000;Europe/Kaliningrad;0;54.861173;19.950206;Yantarny;;Yantarny;;Jantarny;;Jantarnyj;;Iantarny;
1875;411;;Янгор;;0.000000;Pacific/Nauru;0;-9.617000;166.917000;Aiwo;;Aiwo;;Aiwo;;Aiwo;;Aiwo;
1873;160;;Янгон;;0.000000;Asia/Rangoon;0;16.807065;96.131669;Yangon;;Rangún;;Rangun;;Yangon;;Rangoun;
2758;134;;Янаул;;0.000000;Asia/Yekaterinburg;0;56.274327;54.930222;Yanaul;;Yanaul;;Janaul;;Janaul;;Ianaoul;
1913;63;;Ян-Майен;;0.000000;Arctic/Longyearbyen;0;70.933000;-8.667000;Jan Mayen;;Jan Mayen;;Jan Mayen;;Jan Mayen;;Jan Mayen;
4257;257;;Ямполь;;0.000000;Europe/Kiev;0;48.243530;28.299470;Yampil;;Yampil;;Jampil;;Yampil';;Yampil;
4627;274;;Ямполь;;0.000000;Europe/Kiev;0;51.947000;33.787000;Yampil;;Yampil;;Jampil;;Yampil;;Yampil;
885;172;;Ямбург;;0.000000;Asia/Yekaterinburg;0;68.350000;77.133000;Yamburg;;Yamburg;;Jamburg;;Jamburg;;Yamburg;
2812;140;;Яльчики;;0.000000;Europe/Moscow;0;55.161268;48.009221;Yalchiki;;Yalchiki;;Jaltschiki;;Yalchiki;;Ialchiki;
958;128;;Ялуторовск;;0.000000;Asia/Yekaterinburg;0;56.654222;66.306467;Yalutorovsk;;Yalutorovsk;;Jalutorowsk;;Jalutorovsk;;Ialoutorovsk;
1724;248;;Ялунвань;;0.000000;Asia/Chongqing;0;18.237000;109.625000;Yalong Bay;;Yalong Bay;;Yalong Bay;;Yalong Bay;;Baie de Yalong;
2196;256;;Ялта;;0.000000;Europe/Simferopol;0;44.505385;34.181560;Yalta;;Yalta;;Jalta;;Jalta;;Yalta;
4810;260;;Ялта;;0.000000;Europe/Zaporozhye;0;46.966000;37.266000;Yalta;;Yalta;;Jalta;;Jalta;;Yalta;
4230;191;Яловенский район;Яловены;;0.000020;Europe/Chisinau;1;46.950000;28.783333;Ialoveni;Ialoveni District;Ialoveni;Distrito de Ialoveni;Ialoveni;;Ialoveni;;Ialoveni;
3288;39;;Якшур-Бодья;;0.000000;Europe/Samara;0;57.184950;53.155002;Yakshur-Bodya;;Yakshur-Bodya;;Jaksshur-Bodja;;Yakshur-Bodya;;Iakchour-Bodya;
931;117;;Якша;;0.000000;Europe/Moscow;0;61.825455;56.821072;Yaksha;;Yaksha;;Yaksha;;Yaksha;;Yaksha;
146;188;Республика Саха (Якутия);Якутск;;0.006229;Asia/Yakutsk;1;62.05028;129.708981;Yakutsk;Sakha Republic (Yakutia);Yakutsk;República de Sajá (Yakutia);Jakutsk;Republik Sacha (Jakutien);Jakutsk;Sacha-Jacuzia;Yakoutsk;République de Sakha (Yakoutie)
3097;18;;Яковлевка;;0.000000;Asia/Vladivostok;0;44.425446;133.469637;Yakovlevka;;Yakovlevka;;Jakowlewka;;Jakovlevka;;Iakovlevka;
2757;134;;Языково;;0.000000;Asia/Yekaterinburg;0;54.690899;55.018369;Yazykovo;;Yazykovo;;Jasykowo;;Jazykovo;;Yazykovo;
2811;140;;Ядрин;;0.000000;Europe/Moscow;0;55.939143;46.203328;Yadrin;;Yadrin;;Jadrin;;Jadrin;;Iadrine;
4437;265;;Яготин;;0.000000;Europe/Kiev;0;50.256000;31.781000;Yahotyn;;Yagotyn;;Jahotyn;;Yagotyn;;Yagotyn;
3605;62;;Ягодное;;0.000000;Asia/Magadan;0;62.526325;149.623755;Yagodnoye;;Yagodnoye;;Jagodnoje;;Jagodnoe;;Iagodnoïe;
4526;268;;Яворов;;0.000000;Europe/Uzhgorod;0;49.946000;23.393000;Yavoriv;;Yávoriv;;Jaworiw;;Javoriv;;Yavoriv;
4177;370;;Явленка;;0.000000;Asia/Almaty;0;54.353920;68.476695;Yavlenka;;Yavlenka;;Yavlenka;;Yavlenka;;Iavlenka;
3404;44;;Юхнов;;0.000000;Europe/Moscow;0;54.747738;35.245613;Yukhnov;;Yújnov;;Juchnow;;Juchnov;;Ioukhnov;
3819;97;;Юсьва;;0.000000;Asia/Yekaterinburg;0;58.955841;54.963915;Yusva;;Yusva;;Juswa;;Jusva;;Iousva;
1008;141;;Юрюзань;;0.000000;Asia/Yekaterinburg;0;54.861207;58.424619;Yuryuzan;;Yuriuzán;;Jurjusan;;Jurjuzan';;Iouriouzan;
3466;22;;Юрья;;0.000000;Europe/Kirov;0;59.044756;49.282863;Yurya;;Yurya;;Jurja;;Yurya;;Iouria;
4300;259;;Юрьевка;;0.000000;Europe/Zaporozhye;0;48.739000;36.023000;Yuryivka;;Yurivka;;Jurjiwka;;Yuryivka;;Youriivka;
506;38;;Юрьевец;;0.000000;Europe/Moscow;0;57.311269;43.096730;Yuryevets;;Yúrievets;;Jurjewez;;Jur'evec;;Iourievets;
564;20;;Юрьев-Польский;;0.000000;Europe/Moscow;0;56.500748;39.672657;Yuryev-Polsky;;Yúriyev-Polski;;Jurjew-Polski;;Jur'ev-Pol'skij;;Iouriev-Polski;
957;128;;Юровск;;0.000000;Asia/Yekaterinburg;0;59.453041;69.049276;Yurovsk;;Yurovsk;;Jurowsk;;Jurovsk;;Yurovsk;
1766;26;;Юрмала;;0.000041;Europe/Riga;1;56.952700;23.668200;Jurmala;;Jurmala;;Jurmala;;Jūrmala;;Jurmala;
3818;97;;Юрла;;0.000000;Asia/Yekaterinburg;0;59.324941;54.320025;Yurla;;Yurla;;Jurla;;Yurla;;Iourla;
2535;41;;Юрино;;0.000000;Europe/Moscow;0;56.291121;46.291936;Yurino;;Yurino;;Jurino;;Yurino;;Yurino;
2639;128;;Юргинское;;0.000000;Asia/Yekaterinburg;0;56.820307;67.389673;Yurginskoye;;Yurginskoye;;Jurginskoje;;Jurginskoe;;Yurginskoïe;
3547;56;;Юргамыш;;0.000000;Asia/Yekaterinburg;0;55.372062;64.462615;Yurgamysh;;Yurgamysh;;Jurgamysch;;Jurgamyš;;Iourgamich;
3428;46;;Юрга;;0.000000;Asia/Novokuznetsk;0;55.720370;84.932622;Yurga;;Yurga;;Jurga;;Jurga;;Iourga;
5375;27;;Юрбакркас;;0.000001;Europe/Vilnius;1;55.081020;22.772280;Jurbarkas;;Jurbarkas;;Jurbarkas;;Jurbarkas;;Jurbarkas;
3290;39;;Юкаменское;;0.000000;Europe/Samara;0;57.886730;52.240262;Yukamenskoye;;Yukamenskoye;;Jukamenskoje;;Yukamenskoye;;Ioukamenskoïe;
1007;141;;Южноуральск;;0.000000;Asia/Yekaterinburg;0;54.448404;61.259505;Yuzhnouralsk;;Yuzhnouralsk;;Juschnouralsk;;Južnoural'sk;;Ioujnoouralsk;
4544;269;;Южноукраинск;;0.000000;Europe/Zaporozhye;0;47.822000;31.177000;Yuzhnoukrainsk;;Yuzhnoukrayinsk;;Juschnoukrajinsk;;Yuzhnoukrainsk;;Youjnooukraïnsk;
4572;270;;Южное;;0.000000;Europe/Zaporozhye;0;46.624000;31.102000;Yuzhne;;Yuzhne;;Juschne;;Yuzhne;;Youjne;
3643;66;;Южно-Сухокумск;;0.000000;Europe/Moscow;0;44.662186;45.649735;Yuzhno-Sukhokumsk;;Yuzhno-Sukhokumsk;;Juschno-Suchokumsk;;Južno-Suchokumsk;;Ioujno-Soukhokoumsk;
145;188;Сахалинская область;Южно-Сахалинск;;0.005137;Asia/Sakhalin;1;46.940901;142.743970;Yuzhno-Sakhalinsk;Sakhalin Oblast;Yuzhno-Sajalinsk;Óblast de Sajalín;Juschno-Sachalinsk;Oblast Sachalin;Južno-Sachalinsk;Oblast' di Sachalin;Ioujno-Sakhalinsk;Oblast de Sakhaline
1040;145;;Южно-Курильск;;0.000000;Asia/Sakhalin;0;44.017000;145.867000;Yuzhno-Kurilsk;;Yuzhno-Kurilsk;;Juschno-Kurilsk;;Južno-Kuril'sk;;Ioujno-Kourilsk;
3285;38;;Южа;;0.000000;Europe/Moscow;0;56.576649;42.044373;Yuzha;;Yuzha;;Juscha;;Juža;;Iouja;
4915;330;;Юджин;;0.000000;America/Los_Angeles;0;44.052410;-123.086240;Eugene;;Eugene;;Eugene;;Eugene;;Eugene;
990;11;;Югорск;;0.000000;Asia/Yekaterinburg;0;61.311512;63.337694;Yugorsk;;Yugorsk;;Jugorsk;;Jugorsk;;Iougorsk;
5154;35;;Ювяскюля;;0.000000;Europe/Helsinki;0;62.241000;25.746000;Jyvaskyla;;Jyväskylä;;Jyväskylä;;Jyväskylä;;Jyvaskyla;
2712;70;;Юбилейный;;0.000000;Europe/Moscow;0;55.937164;37.849246;Yubileyny;;Yubileynyy;;Jubileiny;;Jubilejnyj;;Yubileyniy;
1971;36;;Эшторил;;0.000000;Europe/Lisbon;0;38.706000;-9.398000;Estoril;;Estoril;;Estoril;;Estoril;;storil;
1790;152;;Эш-сюр-Сюр;;0.000000;Europe/Luxembourg;0;49.911000;5.936000;Esch-sur-Sure;;Esch-sur-Sure;;Esch-Sauer;;Esch-sur-Sûre;;Esch-sur-Sore;
1789;152;;Эхтернах;;0.000000;Europe/Luxembourg;0;49.800000;6.450000;Echternach;;Echternach;;Echternach;;Echternach;;Echternach;
1467;55;;Эстепона;;0.000000;Europe/Madrid;0;36.429665;-5.145426;Estepona;;Estepona;;Estepona;;Estepona;;Estepona;
3840;98;;Эссо;;0.000000;Asia/Kamchatka;0;55.923838;158.698449;Esso;;Esso;;Esso;;Ėsso;;Esso;
1313;348;;Эссен;;0.000000;Europe/Berlin;0;51.469189;7.042894;Essen;;Essen;;Essen;;Essen;;Essen;
5149;35;;Эспоо;;0.000000;Europe/Helsinki;0;60.196809;24.687043;Espoo;;Espoo;;Espoo;;Espoo;;Espoo;
4841;308;;Эскондидо;;0.000000;America/Los_Angeles;0;33.119400;-117.086040;Escondido;;Escondido;;Escondido;;Escondido;;Escondido;
5313;76;;Эскишехир;;0.000000;Europe/Istanbul;0;39.721330;30.516080;Eskisehir;;Eskisehir;;Eskisehir;;Eskişehir;;Eskisehir;
1111;209;;Эскальдес;;0.000000;Europe/Andorra;0;42.500000;1.533000;Escaldes;;Eskaldes;;Les Escaldes;;Escaldes;;Escaldes;
356;202;Тюрингия;Эрфурт;;0.000031;Europe/Berlin;1;50.982648;11.038927;Erfurt;Thuringia;Érfurt;Turingia;Erfurt;Thüringen;Erfurt;Turingia;Erfurt;Thuringe
3196;24;;Эртиль;;0.000000;Europe/Moscow;0;51.846523;40.806966;Ertil;;Ertil;;Ertil;;Ėrtil';;Ertil;
5125;343;;Эрланген;;0.000000;Europe/Berlin;0;49.589330;11.017220;Erlangen;;Erlangen;;Erlangen;;Erlangen;;Erlangen;
2386;4;;Эркен-Шахар;;0.000000;Europe/Moscow;0;44.376472;41.954148;Erken-Shakhar;;Erken-Shakhtar;;Erken-Schachar;;Erken-Shakhar;;Erken-Shakhar;
4916;331;;Эри;;0.000000;America/New_York;0;42.129090;-80.085590;Erie;;Erie;;Erie;;Erie;;Erie;
2149;76;;Эрзурум;;0.000000;Europe/Istanbul;0;39.854739;41.296020;Erzurum;;Erzurum;;Erzurum;;Erzurum;;Erzurum;
3586;12;;Эрзин;;0.000000;Asia/Krasnoyarsk;0;50.260452;95.162624;Erzin;;Erzin;;Ersin;;Erzin;;Erzin;
1723;248;;Эренхот;;0.000000;Asia/Shanghai;0;43.650000;112.000000;Erenhot;;Eren Hot;;Eren Hot;;Erenhot;;Erenhot;
1989;69;;Эр-Рияд;;0.000000;Asia/Riyadh;0;24.647261;46.711518;Riyadh;;Riad;;Riad;;Al-Riyad;;Riyad;
1722;248;;Эньши;;0.000000;Asia/Shanghai;0;30.207024;109.459241;Enshi;;Enshi;;Enshi;;Enshi;;Enshi;
4903;318;;Энн-Арбор;;0.000000;America/Detroit;0;42.277600;-83.740900;Ann Arbor;;Ann Arbor;;Ann Arbor;;Ann Arbor;;Ann Arbor;
1110;209;;Энкамп;;0.000000;Europe/Andorra;0;42.533000;1.583000;Encamp;;Enkamp;;Encamp;;Encamp;;Enkamp;
4392;263;;Энергодар;;0.000000;Europe/Zaporozhye;0;47.506002;34.648006;Enerhodar;;Enerhodar;;Enerhodar;;Enerhodar;;Enerhodar;
1559;119;;Энде;;0.000000;Asia/Makassar;0;-8.800000;121.600000;Ende;;Ende;;Ende;;Ende;;Ende;
438;109;;Энгельс;;0.000340;Europe/Saratov;1;51.470504;46.095895;Engels;;Enguels;;Engels;;Engels;;Engels;
5312;76;;Элязыг;;0.000000;Europe/Istanbul;0;38.619405;39.207909;Elazig;;Elazig;;Elazig;;Elazığ;;Elazig;
5470;55;;Эльче;;0.000000;Europe/Madrid;0;38.264991;-0.686451;Elche;;Elche;;Elche;;Elche-Elx;;Elche-Elx;
3100;19;;Эльхотово;;0.000000;Europe/Moscow;0;43.343424;44.216309;Elkhotovo;;Elkhotovo;;Elchotowo;;Elkhotovo;;Elkhotovo;
5267;37;;Эльблонг;;0.000000;Europe/Warsaw;0;54.172677;19.406066;Elblag;;Elblag;;Elblag;;Elbląg;;Elblag;
5504;84;;Эль-Хавамедия;;0.000000;Africa/Cairo;0;29.897222;31.274167;Al-Hawamidiyya;;Al-Hamidiyah;;Hamidiya;;Al-Hawamidiyya;;Al-Hawamidiyya;
4942;336;;Эль-Пасо;;0.000001;America/Denver;1;31.758700;-106.487000;El Paso;;El Paso;;El Paso;;El Paso;;El Paso;
4848;308;;Эль-Монте;;0.000000;America/Los_Angeles;0;34.068600;-118.028000;El Monte;;El Monte;;El Monte;;El Monte;;El Monte;
5503;84;;Эль-Минья;;0.000000;Africa/Cairo;0;28.045585;30.739001;Minya;;Menia;;Al-Minya;;Minyā;;Al-Minya;
5502;84;;Эль-Махалла-эль-Кубра;;0.000000;Africa/Cairo;0;30.966667;31.166667;El-Mahalla El-Kubra;;El-Mahalla El-Kubra;;Al-Mahalla al-Kubra;;El-Mahalla El-Kubra;;El-Mahalla El-Koubra;
5501;84;;Эль-Мансура;;0.000000;Africa/Cairo;0;31.000110;31.387256;Mansoura;;El Mansurá;;Al-Mansura;;Mansura;;Mansourah;
1747;138;;Эль-Кувейт;;0.000000;Asia/Kuwait;0;29.341944;47.970075;Kuwait;;Kuwait;;Kuwait;;Kuwait;;Koweit;
1358;84;;Эль-Гуна;;0.000000;Africa/Cairo;0;27.385000;33.679000;El Gouna;;El Gouna;;el-Guna;;El-Gouna;;El Gouna;
5500;84;;Эль-Ашир-мин-Рамадан;;0.000000;Africa/Cairo;0;30.05;31.366667;10th of Ramadan City;;10th of Ramadan City;;10th of Ramadan City;;Città 10th of Ramadan;;10th of Ramadan City;
5499;84;;Эль-Ариш;;0.000000;Africa/Cairo;0;31.085421;33.828499;Arish;;El Arish;;Al-Arisch;;Al-Arish;;El-Arich;
1357;84;;Эль Кузейр;;0.000000;Africa/Cairo;0;26.133000;34.217000;Al-Qusayr;;Al-Qusayr;;al-Qusair;;Al-Qusayr;;Qousseir;
4843;308;;Элк-Гроув;;0.000000;America/Los_Angeles;0;38.408750;-121.371180;Elk Grove;;Elk Grove;;Elk Grove;;Elk Grove;;Elk Grove;
6;188;Республика Калмыкия;Элиста;;0.000132;Europe/Moscow;1;46.308527;44.269330;Elista;Republic of Kalmykia;Elistá;República de Kalmukia;Elista;Kalmückien;Ėlista;Repubblica dei Calmucchi;Elista;République de Kalmoukie
1080;217;;Элис-Спрингс;;0.000000;Australia/Darwin;0;-23.800000;133.883000;Alice Springs;;Alice Springs;;Alice Springs;;Alice Springs;;Alice Springs;
4911;324;;Элизабет;;0.000000;America/New_York;0;40.667930;-74.220050;Elizabeth;;Elizabeth;;Elizabeth;;Elizabeth;;Elizabeth;
2720;70;;Электроугли;;0.000000;Europe/Moscow;0;55.723702;38.207300;Electrougli;;Electrougli;;Elektrougli;;Ėlektrougli;;Elektroougli;
2709;70;;Электросталь;;0.000000;Europe/Moscow;0;55.784999;38.462191;Electrostal;;Elektrostal;;Elektrostal;;Ėlektrostal';;Elektrostal;
2707;70;;Электрогорск;;0.000000;Europe/Moscow;0;55.869840;38.780509;Elektrogorsk;;Elektrogorsk;;Elektrogorsk;;Ėlektrogorsk;;Elektrogorsk;
5374;27;;Электренай;;0.000004;Europe/Vilnius;1;54.786111;24.661111;Elektrenai;;Elektrenai;;Elektrenai;;Elektrėnai;;Elektrenai;
4959;306;;Элджин;;0.000000;America/Chicago;0;42.037250;-88.281010;Elgin;;Elgin;;Elgin;;Elgin;;Elgin;
5422;50;;Эксетер;;0.000000;Europe/London;0;50.718200;-3.535160;Exeter;;Exeter;;Exeter;;Exeter;;Exeter;
5162;47;;Экс-ан-Прованс;;0.000000;Europe/Paris;0;43.517388;5.454038;Aix-en-Provence;;Aix-en-Provence;;Aix-en-Provence;;Aix-en-Provence;;Aix-en-Provence;
3030;10;;Экимчан;;0.000000;Asia/Yakutsk;0;53.067725;132.938809;Ekimchan;;Ekimchan;;Ekimtschan;;Ėkimčan;;Ekimtchan;
4194;369;;Экибастуз;;0.000000;Asia/Almaty;0;51.767707;75.454027;Ekibastuz;;Ekibastuz;;Ekibastus;;Ekibastūz;;Ekibastouz;
1900;51;;Эйндховен;;0.000000;Europe/Amsterdam;0;51.435026;5.482706;Eindhoven;;Eindhoven;;Eindhoven;;Eindhoven;;Eindhoven;
1374;199;;Эйн-Бокек;;0.000000;Asia/Jerusalem;0;31.201000;35.364000;Ein Bokek;;Ein Bokek;;En Bokek;;Ein Bokek;;Ein Bokek;
1373;199;;Эйлат;;0.000000;Asia/Jerusalem;0;29.550000;34.950000;Eilat;;Eilat;;Eilat;;Eilat;;Eilat;
5498;84;;Эдфу;;0.000000;Africa/Cairo;0;24.923766;32.828428;Edfu;;Edfu;;Edfu;;Edfu;;Edfou;
386;242;Альберта;Эдмонтон;AB;0.000119;America/Edmonton;1;53.552120;-113.499000;Edmonton;Alberta;Edmonton;Alberta;Edmonton;Alberta;Edmonton;Alberta;Edmonton;Alberta
2148;76;;Эдирне;;0.000000;Europe/Istanbul;0;41.705989;26.603810;Edirne;;Edirne;;Edirne;;Edirne;;Edirne;
1250;50;;Эдинбург;;0.000000;Europe/London;0;55.953140;-3.189390;Edinburgh;;Edinburgo;;Edinburgh;;Edinburgo;;Édimbourg;
1258;118;;Эгер;;0.000000;Europe/Budapest;0;47.901927;20.374804;Eger;;Eger;;Eger;;Eger;;Eger;
2897;1;;Эгвекинот;;0.000000;Asia/Anadyr;0;66.323804;-179.123489;Egvekinot;;Egvekinot;;Egwekinot;;Ėgvekinot;;Egvekinot;
1970;36;;Эвора;;0.000000;Europe/Lisbon;0;38.567920;-7.900160;Evora;;Évora;;Evora;;Évora;;Évora;
4871;298;;Эверетт;;0.000000;America/Los_Angeles;0;47.978980;-122.200810;Everett;;Everett;;Everett;;Everett;;Everett;
735;62;;Эвенск;;0.000000;Asia/Magadan;0;61.918407;159.236084;Evensk;;Evensk;;Ewensk;;Ėvensk;;Evensk;
4884;307;;Эвансвилл;;0.000000;America/Chicago;0;37.974800;-87.555800;Evansville;;Evansville;;Evansville;;Evansville;;Evansville;
2449;146;;Ытык-Кюель;;0.000000;Asia/Khandyga;0;62.361518;133.559470;Ytyk-Kyuyel;;Ytyk-Kyuyol;;Ytyk-Kjujol;;Yutyk-Kyuyel;;Yutyk-Kyuyel;
3546;56;;Щучье;;0.000000;Asia/Yekaterinburg;0;55.210298;62.753591;Shchuchye;;Shchuchye;;Schtschutschje;;Ščuč'e;;Chtchutchïe;
381;379;;Щучинск;;0.000282;Asia/Almaty;1;52.926109;70.265302;Shchuchinsk;;Shchuchinsk;;Schtschutschinsk;;Shchuchinsk;;Chtchoutchinsk;
5035;289;;Щучин;;0.000000;Europe/Minsk;0;53.611170;24.732710;Shchuchyn;;Shchuchyn;;Schtschutschin;;Ščučyn;;Chtchoutchyn;
4747;280;;Щорс;;0.000000;Europe/Kiev;0;51.823788;31.952696;Shchors;;Shchors;;Schtschors;;Ščors;;Chtchors;
1721;248;;Щицюаньхэ;;0.000000;Asia/Kashgar;0;32.117000;80.067000;Shiquanhe;;Shiquanhe;;Shiquanhe;;Shiquanhezhen;;Shiquanhe;
3568;57;;Щигры;;0.000000;Europe/Moscow;0;51.861858;36.933756;Shchigry;;Shchigry;;Schtschigry;;Ščigry;;Chtchigry;
1955;37;;Щецин;;0.000000;Europe/Warsaw;0;53.424718;14.563029;Szczecin;;Szczecin;;Stettin;;Stettino;;Szczecin;
2719;70;;Щербинка;;0.000000;Europe/Moscow;0;55.511077;37.566038;Shcherbinka;;Shcherbinka;;Schtscherbinka;;Ščerbinka;;Chtcherbinka;
930;117;;Щельяюр;;0.000000;Europe/Moscow;0;65.325400;53.403410;Shchelyayur;;Shchelyayur;;Scheljajur;;Ščel'jajuk;;Shchelyayur;
786;70;;Щелково;;0.000000;Europe/Moscow;0;55.909956;38.020311;Shchelkovo;;Shchólkovo;;Schtscholkowo;;Ščëlkovo;;Chtchiolkovo;
2195;256;;Щелкино;;0.000000;Europe/Simferopol;0;45.423139;35.821214;Shcholkine;;Shcholkine;;Schtscholkine;;Shcholkine;;Chtcholkine;
2620;127;;Щекино;;0.000000;Europe/Moscow;0;54.007377;37.513028;Shchekino;;Shchókino;;Schtschokino;;Ščëkino;;Chtchiokino;
1782;27;;Шяуляй;;0.000027;Europe/Vilnius;1;55.927300;23.312920;Siauliai;;Siauliai;;Siauliai;;Šiauliai;;Siauliai;
372;28;Южно-Казахстанская область;Шымкент;;0.003310;Asia/Almaty;1;42.309537;69.631596;Shymkent;South Kazakhstan Oblast;Shymkent;Provincia de Kazajistán Meridional;Schymkent;Gebiet Südkasachstan;Šymkent;Oblys del Kazakistan Meridionale;Chimkent;Kazakhstan-Méridional
504;38;;Шуя;;0.000000;Europe/Moscow;0;56.847820;41.342844;Shuya;;Shuya;;Schuja;;Šuja;;Chouïa;
3530;54;;Шушенское;;0.000000;Asia/Krasnoyarsk;0;53.330889;91.950489;Shushenskoye;;Shushenskoye;;Schuschenskoje;;Šušenskoe;;Chouchenskoïe;
5068;219;;Шуша;;0.000000;Asia/Baku;0;39.767000;46.750000;Shusha;;Shusha;;Susa;;Shusha;;Chouchi;
2543;112;;Шумячи;;0.000000;Europe/Moscow;0;53.858652;32.425136;Shumyachi;;Shumyachi;;Schumjatschi;;Shumyachi;;Shumyachi;
4643;275;;Шумск;;0.000000;Europe/Uzhgorod;0;50.122000;26.114000;Shumsk;;Shumsk;;Schumsk;;Šums'k;;Choumsk;
721;56;;Шумиха;;0.000000;Asia/Yekaterinburg;0;55.227156;63.295716;Shumikha;;Shumikha;;Schumicha;;Šumicha;;Choumikha;
2808;140;;Шумерля;;0.000000;Europe/Moscow;0;55.491646;46.420980;Shumerlya;;Shumerlya;;Schumerlja;;Šumerlja;;Choumerlia;
3167;23;;Шуйское;;0.000000;Europe/Moscow;0;59.373451;41.025353;Shuyskoye;;Shuyskoye;;Schuiskoje;;Shuyskoye;;Chouyskoïe;
5497;84;;Шубра-эль-Хейма;;0.000000;Africa/Cairo;0;30.107629;31.255160;Shubra El-Kheima;;Shubra El-Kheima;;Schubra al-Chaima;;Shubra El-Khema;;Choubra;
4061;363;;Шубаркудук;;0.000000;Asia/Aqtobe;0;49.094908;56.464243;Shubarkuduk;;Shubarkuduk;;Schubarkuduk;;Shubarkuduk;;Choubarkoudouk;
4111;373;;Шу;;0.000000;Asia/Almaty;0;43.597587;73.721757;Shu;;Shu;;Schu;;Shu;;Chou;
342;202;Баден-Вюртемберг;Штутгарт;;0.000395;Europe/Berlin;1;48.779177;9.171365;Stuttgart;Baden-Württemberg;Stuttgart;Baden-Wurtemberg;Stuttgart;Baden-Württemberg;Stoccarda;Baden-Württemberg;Stuttgart;Bade-Wurtemberg
2008;195;;Штрбске Плесо;;0.000000;Europe/Bratislava;0;49.117000;20.083000;Strbske Pleso;;Strbské pleso;;Strbske Pleso;;Štrbské Pleso;;Strbske Pleso;
4229;191;Штефан-Водский район;Штефан-Водэ;;0.000000;Europe/Chisinau;0;46.530524;29.669952;Stefan Voda;Stefan Voda District;Stefan Voda;Distrito de Stefan Voda;Stefan Voda;;Ștefan Vodă;;Stefan Voda;
4899;313;;Шривпорт;;0.000000;America/Chicago;0;32.525190;-93.750180;Shreveport;;Shreveport;;Shreveport;;Shreveport;;Shreveport;
4727;279;;Шпола;;0.000000;Europe/Kiev;0;49.014950;31.388580;Shpola;;Shpola;;Schpola;;Špola;;Chpola;
4626;274;;Шостка;;0.000000;Europe/Kiev;0;51.856609;33.479960;Shostka;;Shostka;;Schostka;;Šostka;;Chostka;
4049;379;;Шортанды;;0.000000;Asia/Almaty;0;51.714460;71.087200;Shortandy;;Shortandy;;Shortandy;;Šortandy;;Chortandy;
1286;243;;Шонла;;0.000000;Asia/Ho_Chi_Minh;0;21.336896;103.950885;Son La;;Son La;;Son La;;Son La;;Son La;
4228;191;Шолданештский район;Шолданешты;;0.000003;Europe/Chisinau;1;47.822376;28.823318;Soldanesti;Soldanesti District;Soldanesti;Distrito de Soldanesti;Soldanesti;;Șoldănești;;Soldanesti;
4187;372;;Шолаккорган;;0.000000;Asia/Almaty;0;43.759996;69.181252;Sholakkorgan;;Sholakkorgan;;Sholakkorgan;;Sholakkorgan;;Cholakkorgan;
3966;107;;Шлиссельбург;;0.000000;Europe/Moscow;0;59.939414;31.035488;Shlisselburg;;Shlisselburg;;Schlüsselburg;;Šlissel'burg;;Chlisselbourg;
5065;290;;Шклов;;0.000000;Europe/Minsk;0;54.208333;30.286944;Shklow;;Shklow;;Schklou;;Škloŭ;;Chklow;
4595;271;;Шишаки;;0.000000;Europe/Kiev;0;49.876000;34.000000;Shyshaky;;Shyshaky;;Shyshaky;;Šyšaky;;Chychaky;
1720;248;;Шицзячжуан;;0.000000;Asia/Shanghai;0;38.028674;114.477186;Shijiazhuang;;Shijiazhuang;;Shijiazhuang;;Shijiazhuang;;Shijiazhuang;
4022;109;;Шиханы;;0.000000;Europe/Saratov;0;52.115119;47.199758;Shikhany;;Shikhany;;Schichany;;Šichany;;Chikhany;
4571;270;;Ширяево;;0.000000;Europe/Zaporozhye;0;47.381000;30.191000;Shiryaevo;;Shyryayeve;;Shyryayeve;;Shyriayeve;;Chyriaïeve;
4299;259;;Широкое;;0.000000;Europe/Zaporozhye;0;47.687000;33.266000;Shyroke;;Shyroke;;Schyroke;;Shyroke;;Chyroke;
5373;27;;Ширвинтос;;0.000000;Europe/Vilnius;1;55.036878;24.958518;Sirvintos;;Sirvintos;;Sirvintos;;Širvintos;;Sirvintos;
1573;125;;Шираз;;0.000000;Asia/Tehran;0;29.563954;52.507709;Shiraz;;Shiraz;;Schiras;;Shiraz;;Chiraz;
2909;148;;Шира;;0.000000;Asia/Krasnoyarsk;0;54.491813;89.968871;Shira;;Shira;;Schira;;Shira;;Chira;
2988;7;;Шипуново;;0.000000;Asia/Barnaul;0;52.215411;82.267249;Shipunovo;;Shipunovo;;Schipunowo;;Shipunovo;;Chipunovo;
1257;118;;Шиофок;;0.000000;Europe/Budapest;0;46.898707;18.041306;Siofok;;Siofok;;Siófok;;Siófok;;Siófok;
3075;14;;Шимск;;0.000000;Europe/Moscow;0;58.207498;30.709154;Shimsk;;Shimsk;;Schimsk;;Šimsk;;Chimsk;
3029;10;;Шимановск;;0.000000;Asia/Yakutsk;0;51.999740;127.678610;Shimanovsk;;Shimanovsk;;Schimanowsk;;Šimanovsk;;Chimanovsk;
5372;27;;Шилуте;;0.000004;Europe/Vilnius;1;55.356370;21.472090;Silute;;Silute;;Silute;;Šilutė;;Silute;
3920;105;;Шилово;;0.000000;Europe/Moscow;0;54.313465;40.874512;Shilovo;;Shilovo;;Schilowo;;Shilovo;;Chilovo;
1018;144;;Шилка;;0.000000;Asia/Chita;0;51.850399;116.026066;Shilka;;Shilka;;Schilka;;Šilka;;Shilka;
5371;27;;Шилале;;0.000000;Europe/Vilnius;1;55.484300;22.189840;Silale;;Silale;;Silale;;Šilalė;;Silale;
4150;368;;Шиели;;0.000000;Asia/Qyzylorda;0;44.168296;66.675314;Shiyeli;;Shiyeli;;Shiyeli;;Shiyeli;;Chiyeli;
3947;106;;Шигоны;;0.000000;Europe/Samara;0;53.384925;48.662062;Shigony;;Shigony;;Schigony;;Shigony;;Chigoni;
1719;248;;Шигадзе;;0.000000;Asia/Urumqi;0;29.289620;88.780864;Shigatse;;Shigatse;;Shigatse;;Shigatse;;Shigatse;
5496;84;;Шибин-эль-Ком;;0.000000;Africa/Cairo;0;30.577589;30.926611;Shibin el Kom;;Shibin el-Kom;;Schibin al-Kaum;;Shibin el Kom;;Shibin El Kom;
5381;50;;Шеффилд;;0.000000;Europe/London;0;53.379230;-1.451240;Sheffield;;Sheffield;;Sheffield;;Sheffield;;Sheffield;
4155;362;;Шетпе;;0.000000;Asia/Aqtau;0;44.096824;52.163933;Shetpe;;Shetpe;;Shetpe;;Shetpe;;Chetpe;
785;70;;Шереметьево;;0.000000;Europe/Moscow;0;55.977100;37.419907;Sheremetyevo;;Sheremétievo;;Scheremetjewo;;Sheremetyevo;;Cheremetievo;
664;46;;Шерегеш;;0.000000;Asia/Novokuznetsk;0;52.910438;87.978569;Sheregesh;;Sheregesh;;Scheregesch;;Sheregesh;;Sheregesh;
5186;387;;Шербрук;;0.000000;America/Toronto;0;45.404450;-71.900026;Sherbrooke;;Sherbrooke;;Sherbrooke;;Sherbrooke;;Sherbrooke;
3714;92;;Шербакуль;;0.000000;Asia/Omsk;0;54.628697;72.394315;Sherbakul;;Sherbakul;;Scherbakul;;Sherbakul';;Cherbakoul;
4711;278;;Шепетовка;;0.000000;Europe/Kiev;0;50.177540;27.066030;Shepetivka;;Shepetivka;;Schepetiwka;;Šepetivka;;Chepetivka;
1718;248;;Шеньян;;0.000000;Asia/Shanghai;0;41.830080;123.394817;Shenyang;;Shenyang;;Shenyang;;Shenyang;;Shenyang;
3946;106;;Шентала;;0.000000;Europe/Samara;0;54.433299;51.465950;Shentala;;Shentala;;Schentala;;Shentala;;Chentala;
517;3;;Шенкурск;;0.000000;Europe/Moscow;0;62.105934;42.903746;Shenkursk;;Shénkursk;;Schenkursk;;Šenkursk;;Chenkoursk;
1788;152;;Шенген;;0.000000;Europe/Luxembourg;0;49.472000;6.366000;Schengen;;Schengen;;Schengen;;Schengen;;Schengen;
3794;96;;Шемышейка;;0.000000;Europe/Moscow;0;52.893499;45.388349;Shemysheyka;;Shemysheyka;;Schemyscheika;;Shemysheyka;;Chemycheïka;
2804;140;;Шемурша;;0.000000;Europe/Moscow;0;54.885927;47.521608;Shemursha;;Shemursha;;Schemurscha;;Shemursha;;Shemursha;
4766;42;;Шемордан;;0.000000;Europe/Moscow;0;56.189816;50.395595;Shemordan;;Shemordan;;Schemordan;;Shemordan;;Shemordan;
4101;375;;Шемонаиха;;0.000000;Asia/Almaty;0;50.650631;81.907415;Shemonaikha;;Shemonaikha;;Schemonaicha;;Shemonaikha;;Chemonaïkha;
2412;144;;Шелопугино;;0.000000;Asia/Chita;0;51.651534;117.560138;Shelopugino;;Shelopugino;;Schelopugino;;Shelopugino;;Shelopugino;
3215;9;;Шелковская;;0.000000;Europe/Moscow;0;43.511413;46.346064;Shelkovskaya;;Shelkovskaya;;Schelkowskaja;;Shelkovskaya;;Chelkovskaïa;
646;40;;Шелехов;;0.000000;Asia/Irkutsk;0;52.205244;104.086617;Shelekhov;;Shélejov;;Schelechow;;Šelechov;;Chelekhov;
1056;146;;Шелагонцы;;0.000000;Asia/Yakutsk;0;66.250000;114.283000;Shelagontsy;;Shelagontsy;;Schelagontsy;;Shelagontsy;;Shelagontsy;
2987;7;;Шелаболиха;;0.000000;Asia/Barnaul;0;53.413063;82.617296;Shelabolikha;;Shelabolikha;;Schelabolicha;;Shelabolikha;;Chelabolikha;
3166;23;;Шексна;;0.000000;Europe/Moscow;0;59.205836;38.509108;Sheksna;;Sheksna;;Scheksna;;Šeksna;;Cheksna;
4675;276;;Шевченково;;0.000000;Europe/Zaporozhye;0;49.693000;37.173000;Shevchenkove;;Shevchénkove;;Schewtschenkowe;;Ševčenkove;;Chevtchenkove;
3007;8;;Шебекино;;0.000000;Europe/Moscow;0;50.399846;36.889185;Shebekino;;Shebekino;;Schebekino;;Šebekino;;Chebekino;
3205;282;;Шебалино;;0.000000;Asia/Barnaul;0;51.297311;85.679185;Shebalino;;Shebalino;;Schebalino;;Šebalino;;Chebalino;
353;202;Мекленбург - Передняя Померания;Шверин;;0.000027;Europe/Berlin;1;53.630648;11.413221;Schwerin;Mecklenburg-Vorpommern;Schwerin;Mecklemburgo-Pomerania Occidental;Schwerin;Mecklenburg-Vorpommern;Schwerin;Meclemburgo-Pomerania Anteriore;Schwerin;Mecklembourg-Poméranie-Occidentale
5370;27;;Швенчёнис;;0.000000;Europe/Vilnius;0;55.133333;26.166667;Svencionys;;Svencionys;;Svencionys;;Švenčionys;;Svencionys;
4186;372;;Шаян;;0.000000;Asia/Almaty;0;42.988459;69.347242;Shayan;;Shayan;;Schajan;;Shayan;;Chayan;
3919;105;;Шацк;;0.000000;Europe/Moscow;0;54.026008;41.721099;Shatsk;;Shatsk;;Schazk;;Šack;;Chatsk;
4273;258;;Шацк;;0.000000;Europe/Uzhgorod;0;51.487000;23.929000;Shatsk;;Shatsk;;Schazk;;Šac'k;;Chatsk;
3656;79;;Шахунья;;0.000000;Europe/Moscow;0;57.672756;46.623699;Shakhunya;;Shajunia;;Schachunja;;Šachun'ja;;Chakhounia;
869;104;;Шахты;;0.000143;Europe/Moscow;1;47.726686;40.229033;Shakhty;;Shajty;;Schachty;;Šachty;;Chakhty;
2422;145;;Шахтерск;;0.000000;Asia/Sakhalin;0;49.176097;142.142692;Shakhtarsk;;Shakhtersk;;Schachtarsk;;Šachtërsk;;Chakhtarsk;
4336;260;;Шахтерск;;0.000000;Europe/Zaporozhye;0;48.070000;38.422000;Shakhtarsk;;Shajtarsk;;Schachtarsk;;Shakhtars'k;;Chakhtarsk;
784;70;;Шаховская;;0.000000;Europe/Moscow;0;56.030779;35.510332;Shakhovskaya;;Shajovskaya;;Schachowskaja;;Šachovskaja;;Shakhovskaïa;
4185;372;;Шаульдер;;0.000000;Asia/Almaty;0;42.757788;68.325596;Shaulder;;Shaulder;;Shaulder;;Shaul'der;;Chaoulder;
783;70;;Шатура;;0.000000;Europe/Moscow;0;55.571231;39.530268;Shatura;;Shatúra;;Schatura;;Šatura;;Chatoura;
3545;56;;Шатрово;;0.000000;Asia/Yekaterinburg;0;56.514089;64.630400;Shatrovo;;Shatrovo;;Schatrowo;;Šatrovo;;Chatrovo;
584;9;;Шатой;;0.000000;Europe/Moscow;0;42.871505;45.691981;Shatoy;;Shatoy;;Schatoi;;Šatoy;;Shatoy;
809;79;;Шатки;;0.000000;Europe/Moscow;0;55.183648;44.121207;Shatki;;Shatki;;Schatki;;Šachty;;Shatki;
670;52;;Шарья;;0.000000;Europe/Moscow;0;58.367121;45.514469;Sharya;;Shariá;;Scharja;;Šar'ja;;Charia;
3529;54;;Шарыпово;;0.000000;Asia/Krasnoyarsk;0;55.539328;89.179370;Sharypovo;;Sharypovo;;Scharypowo;;Šarypovo;;Charypovo;
3214;9;;Шарой;;0.000000;Europe/Moscow;0;42.627496;45.804751;Sharoy;;Sharoy;;Scharoi;;Sharoy;;Charoï;
1356;84;;Шарм-эль-Шейх;;0.000000;Africa/Cairo;0;27.857697;34.286840;Sharm el-Sheikh;;Sharm el-Sheikh;;Scharm El-Scheich;;Sharm el-Sheikh;;Charm el-Cheikh;
3767;94;;Шарлык;;0.000000;Asia/Yekaterinburg;0;52.926113;54.740988;Sharlyk;;Sharlyk;;Scharlyk;;Šarlyk;;Charlyk;
394;242;Остров Принца Эдварда;Шарлоттаун;PE;0.000000;America/Halifax;1;46.239020;-63.139040;Charlottetown;Prince Edward Island;Charlottetown;Isla del Príncipe Eduardo;Charlottetown;Prince Edward Island;Charlottetown;Isola del Principe Edoardo;Charlottetown;Île-du-Prince-Édouard
2070;200;;Шарлотта-Амалия;;0.000000;America/St_Thomas;0;18.338069;-64.892198;Charlotte Amalie;;Carlota Amalia;;Charlotte Amalie;;Charlotte Amalie;;Charlotte Amalie;
4919;334;;Шарлотт;;0.000010;America/New_York;1;35.227040;-80.843190;Charlotte;;Charlotte;;Charlotte;;Charlotte;;Charlotte;
5011;287;;Шарковщина;;0.000000;Europe/Minsk;0;55.366667;27.466667;Sharkawshchyna;;Sharkawshchyna;;Scharkiwschtschyna;;Šarkaŭščyna;;Charkowchtchyna;
3289;39;;Шаркан;;0.000000;Europe/Samara;0;57.298993;53.873584;Sharkan;;Sharkan;;Scharkan;;Sharkan;;Charkan;
1382;30;;Шарджа;;0.000000;Asia/Dubai;0;25.320507;55.424076;Sharjah;;Sharjah;;Schardscha;;Sharja;;Charjah;
4184;372;;Шардара;;0.000000;Asia/Almaty;0;41.254722;67.969167;Shardara;;Shardara;;Schardara;;Šardara;;Chardara;
4256;257;;Шаргород;;0.000000;Europe/Kiev;0;48.731830;28.078950;Sharhorod;;Sharhorod;;Scharhorod;;Sharhorod;;Charhorod;
4164;369;;Шарбакты;;0.000000;Asia/Almaty;0;52.495285;78.253004;Sharbakty;;Sharbakty;;Scherbakty;;Šarbaqty;;Charbakty;
3655;79;;Шаранга;;0.000000;Europe/Moscow;0;57.178036;46.543625;Sharanga;;Sharanga;;Scharanga;;Sharanga;;Charanga;
2755;134;;Шаран;;0.000000;Asia/Yekaterinburg;0;54.827114;53.992193;Sharan;;Sharan;;Scharan;;Sharan;;Sharan;
1717;248;;Шанхай;;0.000000;Asia/Shanghai;0;31.241459;121.508338;Shanghai;;Shanghái;;Shanghai;;Shanghai;;Shanghai;
5311;76;;Шанлыурфа;;0.000000;Europe/Istanbul;0;37.109086;38.801895;Sanliurfa;;Sanliurfa;;Sanliurfa;;Şanlıurfa;;Sanliurfa;
2262;47;;Шамони;;0.000000;Europe/Paris;0;45.933000;6.867000;Chamonix;;Chamonix;;Chamonix;;Chamonix;;Chamonix;
605;32;;Шамары;;0.000000;Asia/Yekaterinburg;0;57.338620;58.219191;Shamary;;Shamary;;Schamary;;Shamary;;Shamary;
3266;32;;Шаля;;0.000000;Asia/Yekaterinburg;0;57.251673;58.731135;Shalya;;Shalya;;Schalja;;Shalya;;Chalia;
5369;27;;Шальчининкай;;0.000019;Europe/Vilnius;1;54.308201;25.388228;Salcininkai;;Salcininkai;;Salcininkai;;Šalčininkai;;Salcininkai;
4060;363;;Шалкар;;0.000000;Asia/Aqtobe;0;47.800103;59.658182;Shalkar;;Shalkar;;Schalqar;;Šalqar;;Chalkar;
3528;54;;Шалинское;;0.000000;Asia/Krasnoyarsk;0;55.715553;93.750392;Shalinskoye;;Shalinskoye;;Schalinskoje;;Šalinskoe;;Chalinskoïe;
583;9;;Шали;;0.000000;Europe/Moscow;0;43.149046;45.899505;Shali;;Shalí;;Schali;;Šali;;Chali;
5368;27;;Шакяй;;0.000000;Europe/Vilnius;1;54.954220;23.060310;Sakiai;;Sakiai;;Sakiai;;Šakiai;;Sakiai;
297;200;Вайоминг;Шайенн;WY;0.000005;America/Denver;1;41.13351;-104.81681;Cheyenne;Wyoming;Cheyenne;Wyoming;Cheyenne;Wyoming;Cheyenne;Wyoming;Cheyenne;Wyoming
720;56;;Шадринск;;0.000000;Asia/Yekaterinburg;0;56.088815;63.645276;Shadrinsk;;Shadrinsk;;Schadrinsk;;Šadrinsk;;Chadrinsk;
3585;12;;Шагонар;;0.000000;Asia/Krasnoyarsk;0;51.531225;92.917616;Shagonar;;Shagonar;;Schagonar;;Šagonar;;Chagonar;
3736;93;;Шаблыкино;;0.000000;Europe/Moscow;0;52.867670;35.246573;Shablykino;;Shablykino;;Schablykino;;Shablykino;;Chablykino;
1208;237;;Шабла;;0.000000;Europe/Sofia;0;43.533000;28.533000;Shabla;;Shabla;;Schabla;;Šabla;;Chabla;
1716;248;;Чэндэ;;0.000000;Asia/Shanghai;0;40.921446;117.922307;Chengde;;Chengde;;Chengde;;Chengde;;Chengde;
1715;248;;Чэнду;;0.000000;Asia/Chongqing;0;30.736763;104.060439;Chengdu;;Chengdú;;Chengdu;;Chengdu;;Chengdu;
4028;137;;Чхонджин;;0.000000;Asia/Pyongyang;0;41.736266;129.743662;Chongjin;;Chongjin;;Chongjin;;Chongjin;;Chongjin;
3918;105;;Чучково;;0.000000;Europe/Moscow;0;54.268681;41.446482;Chuchkovo;;Chuchkovo;;Tschutschkowo;;Chuchkovo;;Tchoutchkovo;
3488;52;;Чухлома;;0.000000;Europe/Moscow;0;58.753614;42.687533;Chukhloma;;Chukhloma;;Tschuchloma;;Čuchloma;;Tchoukhloma;
4037;466;;Чуук;;0.000000;Pacific/Chuuk;0;7.467000;151.850000;Chuuk;;Chuuk;;Chuuk;;Chuuk;;Chuuk;
4594;271;;Чутово;;0.000000;Europe/Kiev;0;49.711000;35.162000;Chutove;;Chutove;;Tschutowe;;Čutove;;Tchoutove;
842;97;;Чусовой;;0.000000;Asia/Yekaterinburg;0;58.277653;57.826178;Chusovoy;;Chusovói;;Tschussowoi;;Čusovoj;;Tchoussovoï;
2448;146;;Чурапча;;0.000000;Asia/Yakutsk;0;61.992669;132.433345;Churapcha;;Churapcha;;Tschuraptscha;;Čurapča;;Churapcha;
1714;248;;Чунцин;;0.000000;Asia/Chongqing;0;29.573416;106.522224;Chongqing;;Chóngqing;;Chongqing;;Chongqing;;Chongqing;
3328;40;;Чунский;;0.000000;Asia/Irkutsk;0;56.093596;99.648216;Chunsky;;Chunskiy;;Tschunski;;Chunskij;;Tchounski;
4079;383;;Чунджа;;0.000000;Asia/Almaty;0;43.564750;79.395496;Chundzha;;Shonzhy;;Tschundscha;;Shonzhy;;Tchoundja;
2773;135;;Чумикан;;0.000000;Asia/Vladivostok;0;54.714528;135.314992;Chumikan;;Chumikan;;Tschumikan;;Chumikan;;Tchoumikan;
812;85;;Чулым;;0.000000;Asia/Novosibirsk;0;55.095847;80.964247;Chulym;;Chulym;;Tschulym;;Čulym;;Tchoulym;
4819;308;;Чула-Виста;;0.000000;America/Los_Angeles;0;32.640220;-117.083160;Chula Vista;;Chula-Vista;;Chula Vista;;Chula Vista;;Chula Vista;
3074;14;;Чудово;;0.000000;Europe/Moscow;0;59.124167;31.674902;Chudovo;;Chúdovo;;Tschudowo;;Čudovo;;Tchoudovo;
4358;261;;Чуднов;;0.000000;Europe/Kiev;0;50.056920;28.114450;Chudniv;;Chudniv;;Tschudniw;;Chudniv;;Tchoudniv;
3078;18;;Чугуевка;;0.000000;Asia/Vladivostok;0;44.169082;133.862187;Chuguyevka;;Chuguyevka;;Tschugujewka;;Chuguyevka;;Tchougouïevka;
4674;276;;Чугуев;;0.000000;Europe/Zaporozhye;0;49.835000;36.686000;Chuhuiv;;Chugúyev;;Tschuhujiw;;Čuguev;;Tchouhouïv;
3204;282;;Чоя;;0.000000;Asia/Barnaul;0;52.011291;86.543569;Choya;;Choya;;Tschoja;;Choya;;Tchoïa;
5310;76;;Чорум;;0.000000;Europe/Istanbul;0;40.440233;34.945480;Corum;;Çorum;;Corum;;Çorum;;Corum;
4642;275;;Чортков;;0.000000;Europe/Uzhgorod;0;49.007000;25.790000;Chortkiv;;Chortkiv;;Tschortkiw;;Čortkiv;;Tchortkiv;
5309;76;;Чорлу;;0.000000;Europe/Istanbul;0;41.180555;27.855393;Corlu;;Çorlu;;Corlu;;Çorlu;;Corlu;
4370;262;;Чоп;;0.000000;Europe/Uzhgorod;0;48.430000;22.211000;Chop;;Chop;;Tschop;;Čop;;Tchop;
1645;34;;Чолпон-Ата;;0.000000;Asia/Bishkek;0;42.649043;77.221264;Cholpon-Ata;;Cholpon-Ata;;Tscholponata;;Čolponata;;Tcholponata;
1055;146;;Чокурдах;;0.000000;Asia/Srednekolymsk;0;70.617000;147.883000;Chokurdakh;;Chokurdakh;;Tschokurdach;;Čokurdach;;Tchokourdakh;
1859;161;;Чойбалсан;;0.000000;Asia/Choibalsan;0;48.083000;114.550000;Choybalsan;;Choybalsan;;Tschoibalsan;;Choybalsan;;Choybalsan;
3654;79;;Чкаловск;;0.000000;Europe/Moscow;0;56.760108;43.236200;Chkalovsk;;Chkalovsk;;Tschkalowsk;;Čkalovsk;;Tchkalovsk;
2754;134;;Чишмы;;0.000000;Asia/Yekaterinburg;0;54.593445;55.391050;Chishmy;;Chishmy;;Tschischmy;;Čišmy;;Tchichmy;
1840;67;;Чиуауа;;0.000000;America/Chihuahua;0;28.628719;-106.051431;Chihuahua;;Chihuahua;;Chihuahua;;Chihuahua;;Chihuahua;
1138;222;;Читтагонг;;0.000000;Asia/Dhaka;0;22.331708;91.815933;Chittagong;;Chittagong;;Chittagong;;Chittagong;;Chittagong;
144;188;Читинская область;Чита;;0.005690;Asia/Chita;1;52.028855;113.501806;Chita;Chita Oblast;Chitá;Óblast de Chitá;Tschita;Oblast Tschita;Čita;Territorio della Transbajkalia;Tchita;Oblast de Tchita
3363;42;;Чистополь;;0.000000;Europe/Moscow;0;55.355688;50.660942;Chistopol;;Chístopol;;Tschistopol;;Čistopol';;Tchistopol;
3685;85;;Чистоозерное;;0.000000;Asia/Novosibirsk;0;54.707289;76.581754;Chistoozernoye;;Chistoozernoye;;Tschistoosjornoje;;Čistoozërnoe;;Tchistoozernoïe;
5140;2163;;Чирчик;;0.000000;Asia/Tashkent;0;41.444360;69.545815;Chirchiq;;Chirchiq;;Chirchiq;;Chirchiq;;Tchirtchik;
1207;237;;Чирпан;;0.000000;Europe/Sofia;0;42.850000;25.333000;Chirpan;;Chirpan;;Tschirpan;;Čirpan;;Chirpan;
4122;374;;Чингирлау;;0.000000;Asia/Oral;0;51.015255;54.153909;Chingirlau;;Chingirlau;;Tschhingirlau;;Šyńǧyrlay;;Chingirlaou;
4227;191;Чимишлийский район;Чимишлия;;0.000010;Europe/Chisinau;1;46.528210;28.779910;Cimislia;Cimislia District;Cimislia;Distrito de Cimislia;Cimislia;;Cimișlia;;Cimislia;
555;19;;Чикола;;0.000000;Europe/Moscow;0;43.201455;43.931271;Chikola;;Chikola;;Cykola;;Čikola;;Chikola;
2069;306;;Чикаго;;0.000131;America/Chicago;1;41.849910;-87.650150;Chicago;;Chicago;;Chicago;;Chicago;;Chicago;
4726;279;;Чигирин;;0.000000;Europe/Kiev;0;49.087000;32.647000;Chyhyryn;;Chihirin;;Tschyhyryn;;Čyhyryn;;Tchyhyryne;
2093;74;;Чиангмай;;0.000000;Asia/Bangkok;0;18.782191;98.985059;Chiang Mai;;Chiang Mai;;Chiang Mai;;Chiang Mai;;Chiang Mai;
1713;248;;Чжэнчжоу;;0.000000;Asia/Shanghai;0;34.702351;113.669623;Zhengzhou;;Zhengzhóu;;Zhengzhou;;Zhengzhou;;Zhengzhou;
2147;76;;Чешме;;0.000000;Europe/Istanbul;0;38.293000;26.311000;Cesme;;Cesme;;Cesme;;Çeşme;;Cesme;
5024;288;;Чечерск;;0.000000;Europe/Minsk;0;52.916667;30.916667;Chachersk;;Chachersk;;Tschatschersk;;Čačėrsk;;Tchatchersk;
4255;257;;Чечельник;;0.000000;Europe/Kiev;0;48.217000;29.350000;Chechelnyk;;Chechelnik;;Tschetschelnyk;;Čečel'nyk;;Tchetchelnyk;
782;70;;Чехов;;0.000000;Europe/Moscow;0;55.154196;37.452322;Chekhov;;Chéjov;;Tschechow;;Čechov;;Tchekhov;
5421;50;;Честерфилд;;0.000000;Europe/London;0;53.233090;-1.420450;Chesterfield;;Chesterfield;;Chesterfield;;Chesterfield;;Chesterfield;
2845;141;;Чесма;;0.000000;Asia/Yekaterinburg;0;53.808924;60.648749;Chesma;;Chesma;;Tschesma;;Česma;;Tchesma;
454;60;Южночешский край;Ческе-Будеёвице;;0.000008;Europe/Prague;1;48.975911;14.477434;Ceske Budejovice;South Bohemian Region;České Budějovice;Región de Bohemia Meridional;Budweis;Südböhmische Region;České Budějovice;Boemia meridionale;České Budějovice;Bohême-du-Sud
4960;300;;Чесапик;;0.000000;America/New_York;0;36.754310;-76.244660;Chesapeake;;Chesapeake;;Chesapeake;;Chesapeake;;Chesapeake;
781;70;;Черусти;;0.000000;Europe/Moscow;0;55.544446;40.008543;Cherusti;;Cherusti;;Tscherusti;;Čerusti;;Cherusti;
3899;104;;Чертково;;0.000000;Europe/Moscow;0;49.376383;40.156299;Chertkovo;;Chertkovo;;Tschertkowo;;Chertkovo;;Tchertkovo;
1054;146;;Черский;;0.000000;Asia/Srednekolymsk;0;68.749000;161.332000;Chersky;;Cherskiy;;Tscherski;;Čerskij;;Tcherski;
657;43;;Черняховск;;0.000000;Europe/Kaliningrad;0;54.629968;21.822858;Chernyakhovsk;;Chernyakhovsk;;Tschernjachowsk;;Černjachovsk;;Tcherniakhovsk;
4357;261;;Черняхов;;0.000000;Europe/Kiev;0;50.451440;28.668540;Chernyakhiv;;Cherniakhiv;;Tschernjachiw;;Chernyakhiv;;Tcherniakhiv;
3006;8;;Чернянка;;0.000000;Europe/Moscow;0;50.939052;37.807099;Chernyanka;;Chernyanka;;Tschernjanka;;Černjanka;;Tchernianka;
2619;127;;Чернь;;0.000000;Europe/Moscow;0;53.454063;36.914741;Chern;;Chern;;Tschern;;Chern;;Tchern;
3146;21;;Чернышковский;;0.000000;Europe/Volgograd;0;48.415459;42.220340;Chernyshkovsky;;Chernyshkovsky;;Tschernyschkowski;;Chernyshkovskiy;;Tchernychkovski;
2411;144;;Чернышевск;;0.000000;Asia/Chita;0;52.528414;117.005703;Chernyshevsk;;Chernyshevsk;;Tschernyschewsk;;Chernyshevsky;;Tchernychevsk;
2935;5;;Черный Яр;;0.000000;Europe/Astrakhan;0;48.061703;46.108556;Chyorny Yar;;Chernyy Yar;;Tschorny Jar;;Černyj Jar;;Tcherny Yar;
4784;97;;Чернушка;;0.000000;Asia/Yekaterinburg;0;56.507157;56.081587;Chernushka;;Chernushka;;Tschernuschka;;Černuška;;Tchernouchka;
4593;271;;Чернухи;;0.000000;Europe/Kiev;0;50.270000;32.940000;Chornukhy;;Chornukhyside;;Tschornuchy;;Chornukhy;;Tchornoukhyside;
4470;256;;Черноморское;;0.000000;Europe/Simferopol;0;45.496965;32.719080;Chornomorske;;Chernomorskoye;;Tschornomorske;;Čornomors'ke;;Tchornomorske;
2908;148;;Черногорск;;0.000000;Asia/Krasnoyarsk;0;53.816797;91.298166;Chernogorsk;;Chernogorsk;;Tschernogorsk;;Černogorsk;;Tchernogorsk;
2688;70;;Черноголовка;;0.000000;Europe/Moscow;0;55.996233;38.374568;Chernogolovka;;Chernogolovka;;Tschernogolowka;;Černogolovka;;Tchernogolovka;
281;196;Черновицкая область;Черновцы;;0.000520;Europe/Uzhgorod;1;48.282000;25.877000;Chernivtsi;Chernivtsi Oblast;Chernivtsi;Óblast de Chernivtsi;Tscherniwzi;Oblast Tscherniwzi;Černivci;Oblast' di Černivci;Tchernivtsi;Oblast de Tchernivtsi
4254;257;;Черновцы;;0.000000;Europe/Kiev;0;48.542000;28.107000;Chernivtsi;;Chernivtsi;;Tscherniwzi;;Černivci;;Tchernivtsi;
3098;18;;Черниговка;;0.000000;Asia/Vladivostok;0;44.344081;132.573613;Chernihivka;;Chernigovka;;Tschernigowka;;Chernigovka;;Tchernigovka;
4381;263;;Черниговка;;0.000000;Europe/Zaporozhye;0;47.192308;36.215641;Chernihivka;;Chernihivka;;Tschernihiwka;;Chernihivka;;Tchernihivka;
280;196;Черниговская область;Чернигов;;0.000546;Europe/Kiev;1;51.491591;31.311560;Chernihiv;Chernihiv Oblast;Chernihiv;Óblast de Chernihiv;Tschernihiw;Oblast Tschernihiw;Černihiv;Oblast' di Černihiv;Tchernihiv;Oblast de Tchernihiv
1206;237;;Черни Врых;;0.000000;Europe/Sofia;0;42583;23267;Cherni Vrah;;Cherni Vrah;;Tscherni Wrach;;Černi Vrăh;;Tcherni Vrah;
841;97;;Чермоз;;0.000000;Asia/Yekaterinburg;0;58.782915;56.155768;Chermoz;;Chórmoz;;Tschormos;;Čërmoz;;Tchiormoz;
3713;92;;Черлак;;0.000000;Asia/Omsk;0;54.153043;74.807064;Cherlak;;Cherlak;;Tscherlak;;Cherlak;;Tcherlak;
4;188;Карачаево-Черкесская Республика;Черкесск;;0.000186;Europe/Moscow;1;44.223223;42.061634;Cherkessk;Karachay-Cherkessia;Cherkesia;República de Karacháyevo-Cherkesia;Tscherkessk;Karatschai-Tscherkessien;Čerkessk;Repubblica Autonoma di Karačaj-Circassia;Tcherkessk;République de Karatchaïévo-Tcherkessie
279;196;Черкасская область;Черкассы;;0.000737;Europe/Kiev;1;49.431613;32.090847;Cherkasy;Cherkasy Oblast;Cherkasy;Óblast de Cherkasy;Tscherkassy;Oblast Tscherkassy;Čerkasy;Oblast' di Čerkasy;Tcherkassy;Oblast de Tcherkassy
437;23;;Череповец;;0.000406;Europe/Moscow;1;59.132866;37.884083;Cherepovets;;Cherepovéts;;Tscherepowez;;Čerepovec;;Tcherepovets;
3684;85;;Черепаново;;0.000000;Asia/Novosibirsk;0;54.228642;83.388214;Cherepanovo;;Cherepanovo;;Tscherepanowo;;Čerepanovo;;Tcherepanovo;
3360;42;;Черемшан;;0.000000;Europe/Moscow;0;54.652141;51.499251;Cheremshan;;Cheremshán;;Tscheremschan;;Čeremšan;;Tcheremchan;
645;40;;Черемхово;;0.000000;Asia/Irkutsk;0;53.137396;103.104222;Cheremkhovo;;Cheremjovo;;Tscheremchowo;;Čeremchovo;;Tcheremkhovo;
3567;57;;Черемисиново;;0.000000;Europe/Moscow;0;51.885076;37.262038;Cheremisinovo;;Cheremisinovo;;Tscheremisinowo;;Cheremisinovo;;Tcheremissinovo;
3817;97;;Чердынь;;0.000000;Asia/Yekaterinburg;0;60.400635;56.483199;Cherdyn;;Cherdyn;;Tscherdyn;;Čerdyn';;Tcherdyne;
2704;130;;Чердаклы;;0.000000;Europe/Ulyanovsk;0;54.354987;48.851224;Cherdakly;;Cherdakly;;Tscherdakly;;Cherdakly;;Tcherdakli;
4525;268;;Червоноград;;0.000000;Europe/Uzhgorod;0;50.386000;24.227000;Chervonohrad;;Chervonograd;;Tscherwonohrad;;Červonohrad;;Tchervonohrad;
4356;261;;Червоноармейск;;0.000000;Europe/Kiev;0;50.469000;28.266000;Chervonoarmiysk;;Chervonoarmiisk;;Tscherwonoarmijsk;;Chervonoarmiysk;;Tchervonoarmiysk;
1503;45;;Червиния;;0.000000;Europe/Rome;0;45.933000;7.700000;Cervinia;;Cervinia;;Breuil-Cervinia;;Cervinia;;Cervinia;
5054;285;;Червень;;0.000000;Europe/Minsk;0;53.707778;28.432222;Chervyen;;Chervyen;;Tscherwen;;Čėrven';;Tcherven;
5266;37;;Ченстохова;;0.000000;Europe/Warsaw;0;50.803020;19.114641;Czestochowa;;Częstochowa;;Czestochowa;;Częstochowa;;Czestochowa;
4710;278;;Чемеровцы;;0.000000;Europe/Kiev;0;49.015000;26.343000;Chemerivtsi;;Chemerivtsi;;Tschemeriwzi;;Chemerivtsi;;Chemerivtsi;
3203;282;;Чемал;;0.000000;Asia/Barnaul;0;51.395521;86.026065;Chemal;;Chemal;;Tschemal;;Chemal;;Tchemal;
141;188;Челябинская область;Челябинск;;0.020670;Asia/Yekaterinburg;1;55.1646;61.411089;Chelyabinsk;Chelyabinsk Oblast;Cheliábinsk;Óblast de Cheliábinsk;Tscheljabinsk;Oblast Tscheljabinsk;Čeljabinsk;Oblast' di Čeljabinsk;Tcheliabinsk;Oblast de Tcheliabinsk
714;54;;Челюскин;;0.000000;Asia/Krasnoyarsk;0;77.717000;104.300000;Chelyuskin;;Cheliuskin;;Tscheljuskin;;Čeljuskin;;Chelyuskin;
5420;50;;Челтнем;;0.000000;Europe/London;0;51.898610;-2.071510;Cheltenham;;Cheltenham;;Cheltenham;;Cheltenham;;Cheltenham;
3945;106;;Челно-Вершины;;0.000000;Europe/Samara;0;54.414853;51.083461;Chelno-Vershiny;;Chelno-Vershiny;;Tschelno-Werschiny;;Chelno-Vershiny;;Tchelno-Verchiny;
5419;50;;Челмсфорд;;0.000000;Europe/London;0;51.736100;0.479800;Chelmsford;;Chelmsford;;Chelmsford;;Chelmsford;;Chelmsford;
2752;134;;Чекмагуш;;0.000000;Asia/Yekaterinburg;0;55.143868;54.650586;Chekmagush;;Chekmagush;;Tschekmagusch;;Čekmaguš;;Chekmagush;
2618;127;;Чекалин;;0.000000;Europe/Moscow;0;54.090968;36.244732;Chekalin;;Chekalin;;Tschekalin;;Čekalin;;Tchekaline;
805;75;;Чегем;;0.000000;Europe/Moscow;0;43.574463;43.598432;Chegem;;Chegem;;Tschegem;;Čegem;;Tcheguem;
2771;135;;Чегдомын;;0.000000;Asia/Vladivostok;0;51.132844;132.950413;Chegdomyn;;Chegdomyn;;Tschegdomyn;;Chegdomyn;;Tchegdomyne;
140;188;Чувашская Республика;Чебоксары;;0.003152;Europe/Moscow;1;56.12025;47.255847;Cheboksary;Chuvash Republic;Cheboksary;República de Chuvasia;Tscheboksary;Tschuwaschien;Čeboksary;Repubblica Ciuvascia;Tcheboksary;République de Tchouvachie
1006;141;;Чебаркуль;;0.000000;Asia/Yekaterinburg;0;54.978870;60.384287;Chebarkul;;Chebarkul;;Tschebarkul;;Čebarkul';;Tcherbakoul;
4923;335;;Чаттануга;;0.000000;America/New_York;0;35.040370;-85.305980;Chattanooga;;Chattanooga;;Chattanooga;;Chattanooga;;Chattanooga;
5222;34;;Чаткал;;0.000000;Asia/Bishkek;0;41.820636;71.032303;Chatkal;;Chatkal;;Tschatkal;;Čatkal;;Chatkal;
5430;389;;Чатем-Кент;;0.000000;America/Toronto;0;42.400000;-82.183333;Chatham-Kent;;Chatham-Kent;;Chatham-Kent;;Chatham-Kent;;Chatham-Kent;
3816;97;;Частые;;0.000000;Asia/Yekaterinburg;0;57.282050;54.966730;Chastye;;Chastye;;Tschastyje;;Častije;;Tchastye;
3544;56;;Частоозерье;;0.000000;Asia/Yekaterinburg;0;55.568627;67.909812;Chastoozerye;;Chastoozerye;;Tschastooserje;;Častoozer'e;;Tchastoozerïe;
2986;7;;Чарышское;;0.000000;Asia/Barnaul;0;51.398049;83.556487;Charyshskoye;;Charyshskoye;;Tscharyschskoje;;Charyshskoye;;Tcharychskoïe;
305;200;Западная Вирджиния;Чарлстон;WV;0.000005;America/New_York;1;38.34842;-81.63195;Charleston;West Virginia;Charleston;West Virginia;Charleston;West Virginia;Charleston;Virginia Occidentale;Charleston;Virginie-Occidentale
4961;340;;Чарлстон;;0.000000;America/New_York;0;32.776190;-79.930890;Charleston;;Charleston;;Charleston;;Charleston;;Charleston;
2410;144;;Чара;;0.000000;Asia/Chita;0;56.903847;118.252651;Chara;;Chara;;Chara;;Chara;;Chara;
3600;58;;Чаплыгин;;0.000000;Europe/Moscow;0;53.240253;39.967426;Chaplygin;;Chaplygin;;Tschaplygin;;Čaplygin;;Tchaplyguine;
4695;277;;Чаплинка;;0.000000;Europe/Zaporozhye;0;46.362000;33.530000;Chaplynka;;Chaplynka;;Tschaplynka;;Chaplynka;;Tchaplynka;
3944;106;;Чапаевск;;0.000000;Europe/Samara;0;52.982150;49.717329;Chapaevsk;;Chapáyevsk;;Tschapajewsk;;Čapaevsk;;Tchapaïevsk;
4121;374;;Чапаев;;0.000000;Asia/Oral;0;50.197758;51.182688;Chapayev;;Chapaev;;Tschapajew;;Chapaev;;Tchapaïev;
3683;85;;Чаны;;0.000000;Asia/Novosibirsk;0;55.309728;76.760873;Chany;;Chany;;Tschany;;Čany;;Tchany;
1712;248;;Чанша;;0.000000;Asia/Chongqing;0;28.233000;112.867000;Changsha;;Changshá;;Changsha;;Changsha;;Changsha;
1711;248;;Чанчунь;;0.000000;Asia/Harbin;0;43.958104;125.376492;Changchun;;Changchún;;Changchun;;Changchun;;Changchun;
1710;248;;Чанхуань Дао;;0.000000;Asia/Shanghai;0;21.733000;112.767000;Chang Huan Dao;;Changhuan Dao;;Changhuan Dao;;Changhuan Dao;;Changhuan Dao;
1709;248;;Чанжоу;;0.000000;Asia/Shanghai;0;25.800000;113.033000;Changzhou;;Changzhóu;;Changzhou;;Changzhou;;Changzhou;
4869;295;;Чандлер;;0.000000;America/Phoenix;0;33.306100;-111.840750;Chandler;;Chandler;;Chandler;;Chandler;;Chandler;
3988;108;;Чамзинка;;0.000000;Europe/Moscow;0;54.398974;45.778193;Chamzinka;;Chamzinka;;Tschamsinka;;Chamzinka;;Tchamzinka;
3898;104;;Чалтырь;;0.000000;Europe/Moscow;0;47.280773;39.501237;Chaltyr;;Chaltyr;;Tschaltyr;;Chaltyr';;Tchaltyr;
2105;228;;Чаки-Чаки;;0.000000;Africa/Dar_es_Salaam;0;-5.250000;39.817000;Chake Chake;;Chake Chake;;Chake Chake;;Chake-Chake;;Chake Chake;
1215;230;;Чакалтайя;;0.000000;America/La_Paz;0;-16.433000;-68.150000;Chacaltaya;;Chacaltaya;;Chacaltaya;;Chacaltaya;;Chacaltaya;
840;97;;Чайковский;;0.000000;Asia/Yekaterinburg;0;56.769310;54.111101;Chaykovsky;;Chaikovski;;Tschaikowski;;Čajkovskij;;Tchaïkovski;
5221;34;;Чаек;;0.000000;Asia/Bishkek;0;41.930000;74.510000;Chaek;;Chaek;;Chaek;;Čaek;;Chaek;
3584;12;;Чадан;;0.000000;Asia/Krasnoyarsk;0;51.292302;91.582377;Chadan;;Chadán;;Tschadan;;Chadan;;Tchadan;
3165;23;;Чагода;;0.000000;Europe/Moscow;0;59.161450;35.329856;Chagoda;;Chagoda;;Tschagoda;;Čagoda;;Tchagoda;
3583;12;;Чаа-Холь;;0.000000;Asia/Krasnoyarsk;0;51.511226;92.342108;Chaa-Khol;;Chaa-Khol;;Tschaa-Chol;;Chaa-Khol;;Tchaa-Khol;
4694;277;;Цюрупинск;;0.000000;Europe/Zaporozhye;0;46.615000;32.720000;Tsiurupynsk;;Tsyurupynsk;;Zjurupynsk;;Tsiurupynsk;;Tsiouroupynsk;
2304;49;;Цюрих;;0.000000;Europe/Zurich;0;47.377949;8.542592;Zurich;;Zúrich;;Zürich;;Zurigo;;Zurich;
4038;467;;Цхинвал;;0.000000;Asia/Tbilisi;0;42.233000;43.983000;Tskhinvali;;Tsjinval;;Zchinwali;;Tskhinvali;;Tskhinvali;
1372;199;;Цфат;;0.000000;Asia/Jerusalem;0;32.967000;35.500000;Safed;;Safed;;Safed;;Safad;;Safed;
3642;66;;Цуриб;;0.000000;Europe/Moscow;0;42.234504;46.833123;Tsurib;;Tsurib;;Tsurib;;Tsurib;;Tsourib;
1708;248;;Цицикар;;0.000000;Asia/Harbin;0;47.302931;123.947899;Qiqihar;;Qiqihar;;Qiqihar;;Qiqihar;;Qiqihar;
2068;328;;Цинциннати;;0.000000;America/New_York;0;39.103950;-84.519550;Cincinnati;;Cincinnati;;Cincinnati;;Cincinnati;;Cincinnati;
1707;248;;Циндао;;0.000000;Asia/Shanghai;0;36.091900;120.363982;Qingdao;;Qingdao;;Qingdao;;Tsingtao;;Qingdao;
868;104;;Цимлянск;;0.000000;Europe/Moscow;0;47.647878;42.073892;Tsimlyansk;;Tsimliansk;;Zimljansk;;Cimljansk;;Tsimliansk;
4797;140;;Цивильск;;0.000000;Europe/Moscow;0;55.859585;47.464326;Tsivilsk;;Tsivilsk;;Tsivilsk;;Civil'sk;;Tsivilsk;
1706;248;;Цзинань;;0.000000;Asia/Shanghai;0;36.641622;117.008630;Jinan;;Jinán;;Jinan;;Jinan;;Jinan;
2279;156;;Цетинье;;0.000000;Europe/Podgorica;0;42.392000;18.923000;Cetinje;;Cetiña;;Cetinje;;Cettigne;;Cetinje;
1765;26;;Цесис;;0.000005;Europe/Riga;1;57.310489;25.284074;Cesis;;Cesis;;Cesis;;Cēsis;;Cesis;
2303;49;;Цермат;;0.000000;Europe/Zurich;0;46.033000;7.750000;Zermatt;;Zermatt;;Zermatt;;Zermatt;;Zermatt;
1095;218;;Цель-ам-Зе;;0.000000;Europe/Vienna;0;47.325276;12.803865;Zell am See;;Zell am See;;Zell am See;;Zell am See;;Zell am See;
2985;7;;Целинное;;0.000000;Asia/Barnaul;0;53.077418;85.659268;Tselinnoye;;Tselinnoye;;Tselinnoje;;Tselinnoye;;Tselinnoïe;
3543;56;;Целинное;;0.000000;Asia/Yekaterinburg;0;54.508570;63.677553;Tselinnoye;;Tselinnoye;;Tselinnoje;;Tselinnoye;;Tselinnoïe;
3897;104;;Целина;;0.000000;Europe/Moscow;0;46.535559;41.031838;Tselina;;Tselina;;Zelina;;Tselina;;Tselina;
4298;259;;Царичанка;;0.000000;Europe/Zaporozhye;0;48.946000;34.478000;Tsarychanka;;Tsarychanka;;Zarytschanka;;Tsarychanka;;Tsarytchanka;
2420;6;;Цаган Аман;;0.000000;Europe/Moscow;0;47.565768;46.720470;Tsagan Aman;;Tsagan Aman;;Zagan-Aman;;Tsagan Aman;;Tsagan Aman;
1285;243;;Хюэ;;0.000000;Asia/Ho_Chi_Minh;0;16.400000;107.683000;Hue;;Hue;;Hue;;Huế;;Hue;
1705;248;;Хэфэй;;0.000000;Asia/Shanghai;0;31.853607;117.307151;Hefei;;Heféi;;Hefei;;Hefei;;Hefei;
4836;308;;Хэйвард;;0.000000;America/Los_Angeles;0;37.669110;-122.080040;Hayward;;Hayward;;Hayward;;Hayward;;Hayward;
2067;336;;Хьюстон;;0.000067;America/Chicago;1;29.763080;-95.363360;Houston;;Houston;;Houston;;Houston;;Houston;
4226;191;Хынчештский район;Хынчешты;;0.000013;Europe/Chisinau;1;46.822617;28.572693;Hincesti;Hincesti District;Hincesti;Distrito de Hincesti;Hincesti;;Hîncești;;Hincesti;
3641;66;;Хучни;;0.000000;Europe/Moscow;0;41.954697;47.949859;Khuchni;;Khuchni;;Chutschni;;Khuchni;;Khoutchni;
1704;248;;Хух-Хото;;0.000000;Asia/Chongqing;0;40.761211;111.710260;Hohhot;;Hohhot;;Hohhot;;Hohhot;;Hohhot;
1858;161;;Хутаг;;0.000000;Asia/Ulaanbaatar;0;49.383000;102.700000;Hutag;;Hutag;;Hutag;;Hutag;;Hutag;
4369;262;;Хуст;;0.000000;Europe/Uzhgorod;0;48.174450;23.304831;Khust;;Khust;;Chust;;Chust;;Khoust;
1339;65;;Хусар;;0.000000;Atlantic/Faroe;0;62.267000;-6.683000;Husar;;Husar;;Husar;;Húsar;;Húsar;
1355;84;;Хургада;;0.000000;Africa/Cairo;0;27.150000;33.717000;Hurghada;;Hurghada;;Hurghada;;Hurghada;;Hurghada;
3640;66;;Хунзах;;0.000000;Europe/Moscow;0;42.539523;46.704330;Khunzakh;;Khunzakh;;Chunsach;;Khunzakh;;Khounzakh;
644;40;;Хужир;;0.000000;Asia/Irkutsk;0;53.192915;107.343933;Khuzhir;;Khuzhir;;Khuzhir;;Chužir;;Koujir;
2082;17;;Худжанд;;0.000000;Asia/Dushanbe;0;40.248031;69.623856;Khujand;;Khodjent;;Chudschand;;Chujand;;Khodjent;
4059;363;;Хромтау;;0.000000;Asia/Aqtobe;0;50.189681;58.376257;Khromtau;;Khromtau;;Chromtau;;Hromtau;;Khromtaou;
4725;279;;Христиновка;;0.000000;Europe/Kiev;0;48.811750;29.982560;Khrystynivka;;Khrystynivka;;Chrystyniwka;;Chrystynivka;;Khrystynivka;
1284;243;;Хошимин;;0.000000;Asia/Ho_Chi_Minh;0;10.761822;106.686310;Ho Chi Minh;;Ho Chi Minh;;Ho-Chi-Minh-Stadt;;Ho Chi Minh;;Ho Chi Minh;
3195;24;;Хохольский;;0.000000;Europe/Moscow;0;51.574467;38.787779;Khokholsky;;Khokholskiy;;Chocholski;;Khokhol'skij;;Khokholski;
2702;70;;Хотьково;;0.000000;Europe/Moscow;0;56.256439;37.983111;Khotkovo;;Khotkovo;;Chotkowo;;Chot'kovo;;Khotkovo;
3735;93;;Хотынец;;0.000000;Europe/Moscow;0;53.127819;35.389123;Khotynets;;Khotynets;;Chotynez;;Khotynets;;Khotynets;
4759;281;;Хотин;;0.000000;Europe/Uzhgorod;0;48.500000;26.500000;Khotyn;;Jotyn;;Chotyn;;Chotyn;;Khotyn;
1703;248;;Хотан;;0.000000;Asia/Kashgar;0;37.144323;79.895087;Hotan;;Jotán;;Hotan;;Hotan;;Hotan;
699;53;;Хоста;;0.000000;Europe/Moscow;0;43.500000;39.883000;Khosta;;Josta;;Khosta;;Khosta;;Khosta;
1932;179;;Хоскинс;;0.000000;Pacific/Port_Moresby;0;-5.501905;150.375128;Hoskins;;Hoskins;;Hoskins;;Hoskins;;Hoskins;
3099;18;;Хороль;;0.000000;Asia/Vladivostok;0;44.426922;132.076716;Khorol;;Jorol;;Chorol;;Khorol;;Khorol;
4592;271;;Хорол;;0.000000;Europe/Kiev;0;49.786000;33.272000;Khorol;;Jorol;;Chorol;;Khorol;;Khorol;
2081;17;;Хорог;;0.000000;Asia/Dushanbe;0;37.521126;71.560237;Khorugh;;Khorugh;;Chorugh;;Choruǧ;;Khorog;
1912;63;;Хорнсунн;;0.000000;Arctic/Longyearbyen;0;77.000000;15.500000;Hornsund;;Hornsund;;Hornsund;;Hornsund;;Hornsund;
2663;129;;Хоринск;;0.000000;Asia/Irkutsk;0;52.164809;109.767347;Khorinsk;;Khorinsk;;Chorinsk;;Khorinsk;;Khorinsk;
2007;195;;Хопок;;0.000000;Europe/Bratislava;0;48.983000;19.600000;Chopok;;Chopok;;Chopok;;Chopok;;Chopok;
1911;63;;Хопен;;0.000000;Europe/Oslo;0;76.500000;25.067000;Hopen;;Hopen;;Hopen;;Hopen;;Hopen;
2447;146;;Хонуу;;0.000000;Asia/Srednekolymsk;0;66.457877;143.220741;Khonuu;;Khonuu;;Chonuu;;Chonuu;;Khonuu;
4033;464;;Хониара;;0.000000;Pacific/Guadalcanal;0;-9.454906;159.967778;Honiara;;Honiara;;Honiara;;Honiara;;Honiara;
3734;93;;Хомутово;;0.000000;Europe/Moscow;0;52.856002;37.437710;Khomutovo;;Khomutovo;;Chomutowo;;Khomutovo;;Khomoutovo;
3566;57;;Хомутовка;;0.000000;Europe/Moscow;0;51.918232;34.558320;Khomutovka;;Khomutovka;;Chomutowka;;Khomutovka;;Khomoutovka;
5233;199;;Холон;;0.000000;Asia/Jerusalem;0;32.014167;34.751667;Holon;;Jolón;;Cholon;;Holon;;Holon;
1039;145;;Холмск;;0.000000;Asia/Sakhalin;0;47.056412;142.049288;Kholmsk;;Kholmsk;;Cholmsk;;Cholmsk;;Kholmsk;
516;3;;Холмогоры;;0.000000;Europe/Moscow;0;64.228356;41.650480;Kholmogory;;Jolmogory;;Cholmogory;;Cholmogory;;Kholmogory;
2541;112;;Холм-Жирковский;;0.000000;Europe/Moscow;0;55.512349;33.482158;Kholm-Zhirkovsky;;Kholm-Zhirkovskiy;;Cholm-Schirkowski;;Kholm-Zhirinovskij;;Kholm-Jirkovski;
3073;14;;Холм;;0.000000;Europe/Moscow;0;57.143962;31.176978;Kholm;;Jolm;;Cholm;;Cholm;;Kholm;
4948;338;;Холливуд;;0.000000;America/New_York;0;26.010650;-80.149950;Hollywood;;Hollywood;;Hollywood;;Hollywood;;Hollywood;
5023;288;;Хойники;;0.000000;Europe/Minsk;0;51.900000;29.966667;Choyniki;;Chojniki;;Choiniki;;Chojniki;;Khoïniki;
1283;243;;Хойан;;0.000000;Asia/Ho_Chi_Minh;0;15.879000;108.335000;Hoi An;;Hoi An;;Hoi An;;Hoi An;;Hoi An;
5265;37;;Хожув;;0.000000;Europe/Warsaw;0;50.295708;18.956302;Chorzow;;Chorzów;;Chorzow;;Chorzów;;Chorzow;
3582;12;;Хову-Аксы;;0.000000;Asia/Krasnoyarsk;0;51.132201;93.704664;Khovu-Aksy;;Khovu-Aksy;;Chowu-Aksy;;Khovu-Aksy;;Khovou-Aksy;
1857;161;;Ховд;;0.000000;Asia/Hovd;0;48.020815;91.656204;Hovd;;Hovd;;Chowd;;Hovd;;Hovd;
1083;217;;Хобарт;;0.000000;Australia/Hobart;0;-42.901023;147.322753;Hobart;;Hobart;;Hobart;;Hobart;;Hobart;
278;196;Хмельницкая область;Хмельницкий;;0.000544;Europe/Kiev;1;49.414412;26.978081;Khmelnytskyi;Khmelnytskyi Oblast;Jmelnitski;Óblast de Jmelnitski;Chmelnyzkyj;Oblast Chmelnyzkyj;Chmel'nyc'kyj;Oblast' di Chmel'nyc'kyj;Khmelnitski;Oblast de Khmelnitski
4253;257;;Хмельник;;0.000000;Europe/Kiev;0;49.556450;27.954910;Khmilnyk;;Jmilnik;;Chmilnyk;;Khmil'nyk;;Khmilnyk;
3599;58;;Хлевное;;0.000000;Europe/Moscow;0;52.195248;39.088310;Hlevnoye;;Hlevnoye;;Lewnoje;;Hlevnoe;;Hlevnoïe;
5469;55;;Хихон;;0.000000;Europe/Madrid;0;43.538120;-5.658170;Gijon;;Gijón;;Gijon;;Gijón;;Gijón;
2540;112;;Хиславичи;;0.000000;Europe/Moscow;0;54.183394;32.155489;Khislavichi;;Khislavichi;;Chislawitschi;;Khislavichi;;Khislavichi;
1436;122;;Хисар;;0.000000;Asia/Kolkata;0;29.136370;75.734762;Hisar;;Hisar;;Hisar;;Hisar;;Hisar;
780;70;;Химки;;0.000000;Europe/Moscow;0;55.901903;37.451171;Khimki;;Khimki;;Chimki;;Chimki;;Khimki;
5124;347;;Хильдесхайм;;0.000000;Europe/Berlin;0;52.155283;9.952545;Hildesheim;;Hildesheim;;Hildesheim;;Hildesheim;;Hildesheim;
2409;144;;Хилок;;0.000000;Asia/Chita;0;51.361679;110.461938;Khilok;;Jilok;;Chilok;;Chilok;;Khilok;
2167;2165;;Хива;;0.000000;Asia/Samarkand;0;41.399565;60.433111;Khiva;;Jiva;;Xiva;;Khiva;;Khiva;
3639;66;;Хив;;0.000000;Europe/Moscow;0;41.754544;47.928153;Khiv;;Khiv;;Chiw;;Khiv;;Khiv;
1328;61;;Херсонисос;;0.000000;Europe/Athens;0;35.317000;25.391000;Hersonissos;;Quersoneso;;Hersonissos;;Chersonissos;;Chersónissos;
277;196;Херсонская область;Херсон;;0.000977;Europe/Zaporozhye;1;46.635000;32.616000;Kherson;Kherson Oblast;Jersón;Óblast de Jersón;Cherson;Oblast Cherson;Cherson;Oblast' di Cherson;Kherson;Oblast de Kherson
5123;348;;Херне;;0.000000;Europe/Berlin;0;51.550000;7.216667;Herne;;Herne;;Herne;;Herne;;Herne;
5468;55;;Херес-де-ла-Фронтера;;0.000000;Europe/Madrid;0;36.688270;-6.128550;Jerez de la Frontera;;Jerez de la Frontera;;Jerez de la Frontera;;Jerez de la Frontera;;Jerez de la Frontera;
2098;72;;Хенчун;;0.000000;Asia/Taipei;0;21.933000;120.833000;Hengchun;;Hengchun;;Hengchun;;Hengchun;;Hengchun;
1098;219;;Хенкеди (Степанакерт);;0.000000;Asia/Baku;0;39.817000;46.750000;Khenkedi (Stepanakert);;Khenkedi (Stepanakert);;Xankəndi (Stepanakert);;Step'anakert;;Khenkedi (Stepanakert);
4908;323;;Хендерсон;;0.000000;America/Los_Angeles;0;36.035470;-114.971630;Henderson;;Henderson;;Henderson;;Henderson;;Henderson;
5094;354;;Хемниц;;0.000000;Europe/Berlin;0;50.832765;12.927949;Chemnitz;;Chemnitz;;Chemnitz;;Chemnitz;;Chemnitz;
2228;35;;Хельсинки;;0.000000;Europe/Helsinki;0;60.166800;24.960916;Helsinki;;Helsinki;;Helsinki;;Helsinki;;Helsinki;
319;200;Монтана;Хелена;MT;0.000001;America/Denver;1;46.59289;-112.03496;Helena;Montana;Helena;Montana;Helena;Montana;Helena;Montana;Helena;Montana
1312;342;;Хейдельберг;;0.000000;Europe/Berlin;0;49.405247;8.683621;Heidelberg;;Heidelberg;;Heidelberg;;Heidelberg;;Heidelberg;
3638;66;;Хебда;;0.000000;Europe/Moscow;0;42.448200;46.553628;Khebda;;Khebda;;Chebda;;Khebda;;Khebda;
3943;106;;Хворостянка;;0.000000;Europe/Samara;0;52.611671;48.961168;Khvorostyanka;;Hvorostyanka;;Chvorostyanka;;Hvorostyanka;;Hvorostyanka;
3072;14;;Хвойная;;0.000000;Europe/Moscow;0;58.903228;34.502773;Khvoynaya;;Khvoynaya;;Chwoinaja;;Chvojnaja;;Khvoïnaïa;
3403;44;;Хвастовичи;;0.000000;Europe/Moscow;0;53.467221;35.091223;Khvastovichi;;Khvastovichi;;Chwastowitschi;;Khvastovichi;;Khvastovitchi;
4021;109;;Хвалынск;;0.000000;Europe/Saratov;0;52.499067;48.102571;Khvalynsk;;Jvalynsk;;Chwalynsk;;Chvalynsk;;Khvalynsk;
713;54;;Хатанга;;0.000000;Asia/Krasnoyarsk;0;71.979518;102.472415;Khatanga;;Khatanga;;Chatanga;;Chatanga;;Khatanga;
1168;225;;Хасселт;;0.000000;Europe/Brussels;0;50.927357;5.341638;Hasselt;;Hasselt;;Hasselt;;Hasselt;;Hasselt;
550;18;;Хасан;;0.000000;Asia/Vladivostok;0;42.424057;130.656572;Khasan;;Jasán;;Chassan;;Chasan;;Khassan;
749;66;;Хасавюрт;;0.000000;Europe/Moscow;0;43.233097;46.587473;Khasavyurt;;Khasavyurt;;Chassawjurt;;Chasavjurt;;Khassaviourt;
276;196;Харьковская область;Харьков;;0.003978;Europe/Zaporozhye;1;49.994000;36.230000;Kharkiv;Kharkiv Oblast;Járkov;Óblast de Járkov;Charkiw;Oblast Charkiw;Charkiv;Oblast' di Charkiv;Kharkiv;Oblast de Kharkiv
4335;260;;Харцызск;;0.000000;Europe/Zaporozhye;0;48.042000;38.146000;Khartsyzk;;Khartsyzk;;Charzysk;;Khartsyz'k;;Khartsyzk;
312;200;Коннектикут;Хартфорд;CT;0.000013;America/New_York;1;41.76354;-72.68585;Hartford;Connecticut;Hartford;Connecticut;Hartford;Connecticut;Hartford;Connecticut;Hartford;Connecticut
2073;192;;Хартум;;0.000000;Africa/Khartoum;0;15.539188;32.548148;Khartoum;;Jartum;;Khartum;;Khartum;;Khartoum;
331;200;Пенсильвания;Харрисбург;PA;0.000025;America/New_York;1;40.27381;-76.88474;Harrisburg;Pennsylvania;Harrisburg;Pennsylvania;Harrisburg;Pennsylvania;Harrisburg;Pennsylvania;Harrisburg;Pennsylvanie
4786;172;;Харп;;0.000000;Asia/Yekaterinburg;0;66.818173;65.805400;Kharp;;Kharp;;Charp;;Jusva;;Kharp;
3164;23;;Харовск;;0.000000;Europe/Moscow;0;59.955201;40.197977;Kharovsk;;Kharovsk;;Charowsk;;Charovsk;;Kharovsk;
1702;248;;Харбин;;0.000000;Asia/Harbin;0;45.750301;126.627848;Harbin;;Harbín;;Harbin;;Harbin;;Harbin;
1366;252;;Хараре;;0.000000;Africa/Harare;0;-17.820068;31.077760;Harare;;Harare;;Harare;;Harare;;Harare;
2934;5;;Харабали;;0.000000;Europe/Astrakhan;0;47.414168;47.261471;Kharabali;;Jarabali;;Harabali;;Charabali;;Kharabali;
1327;61;;Ханья;;0.000000;Europe/Athens;0;35.501152;24.036111;Chania;;La Canea;;Chania;;La Canea;;La Canée;
1701;248;;Ханьчжун;;0.000000;Asia/Chongqing;0;33.100598;107.033793;Hanzhong;;Hanzhong;;Hanzhong;;Hanzhong;;Hanzhong;
1700;248;;Ханчжоу;;0.000000;Asia/Shanghai;0;30.243966;120.157583;Hangzhou;;Hangchow;;Hangchow;;Hangzhou;;Hangzhou;
11;188;Ханты-Мансийский автономный округ;Ханты-Мансийск;;0.006331;Asia/Yekaterinburg;1;61.000096;69.034643;Khanty-Mansiysk;Khanty-Mansi Autonomous Okrug;Janty-Mansisk;Distrito autónomo de Janty-Mansi;Chanty-Mansijsk;Autonomer Kreis der Chanten und Mansen/Jugra;Chanty-Mansijsk;Circondario autonomo degli Chanty-Mansi-Jugra;Khanty-Mansiïsk;District autonome des Khantys-Mansis
4866;293;;Хантсвилл;;0.000000;America/Chicago;0;34.730460;-86.586120;Huntsville;;Huntsville;;Huntsville;;Huntsville;;Huntsville;
2066;308;;Хантингтон-Бич;;0.000000;America/Los_Angeles;0;33.660070;-117.997920;Huntington Beach;;Huntington Beach;;Huntington Beach;;Huntington Beach;;Huntington Beach;
1282;243;;Ханой;;0.000000;Asia/Ho_Chi_Minh;0;21.018055;105.852646;Hanoi;;Hanói;;Hanoi;;Hanoi;;Ha Noi;
2446;146;;Хандыга;;0.000000;Asia/Khandyga;0;62.655790;135.557392;Khandyga;;Khandyga;;Chandyga;;Chandyga;;Khandyga;
3581;12;;Хандагайты;;0.000000;Asia/Krasnoyarsk;0;50.731119;92.079640;Handagayty;;Handagayty;;Handagaiti;;Khandagayty;;Handagayty;
4962;300;;Хамптон;;0.000000;America/New_York;0;37.029590;-76.345740;Hampton;;Hampton;;Hampton;;Hampton;;Hampton;
2114;216;;Хаммамет;;0.000000;Africa/Tunis;0;36.436535;10.637935;Hammamet;;Hammamet;;Hammamet;;Hammamet;;Hammamet;
5122;348;;Хамм;;0.000000;Europe/Berlin;0;51.688615;7.811363;Hamm;;Hamm;;Hamm;;Hamm;;Hamm;
2227;35;;Халли;;0.000000;Europe/Helsinki;0;61.850000;24.800000;Halley;;Halley;;Halley;;Halley;;Halley;
1326;61;;Халкидики;;0.000000;Europe/Athens;0;40.050000;23.416000;Chalkidiki;;Calcídica;;Chalkidiki;;Unità periferica della Calcidica;;Chalcidique;
2878;64;;Хакуринохабль;;0.000000;Europe/Moscow;0;45.021960;40.246654;Khakurinokhabl;;Jakurinojabl;;Chakurinochabl;;Khakurinokhabl;;Khakurinokhabl;
1281;243;;Хайфон;;0.000000;Asia/Ho_Chi_Minh;0;20.856000;106.682000;Haiphong;;Hai Phong;;Hai Phong;;Haiphong;;Hai Phong;
1371;199;;Хайфа;;0.000000;Asia/Jerusalem;0;32.790431;35.021915;Haifa;;Haifa;;Haifa;;Haifa;;Haïfa;
5121;342;;Хайльбронн;;0.000000;Europe/Berlin;0;49.136438;9.209351;Heilbronn;;Heilbronn;;Heilbronn;;Heilbronn;;Heilbronn;
1699;248;;Хайлар;;0.000000;Asia/Shanghai;0;49.154113;119.724385;Hailar;;Hailar;;Hailar;;Hailar;;Hailar;
1698;248;;Хайкоу;;0.000000;Asia/Chongqing;0;20.030883;110.340083;Haikou;;Haikou;;Haikou;;Haikou;;Haikou;
1435;122;;Хайдарабад;;0.000000;Asia/Kolkata;0;17.347137;78.419677;Hyderabad;;Hyderabad;;Hyderabad;;Hyderabad;;Hyderabad;
4947;338;;Хайалиа;;0.000000;America/New_York;0;25.857410;-80.278260;Hialeah;;Hialeah;;Hialeah;;Hialeah;;Hialeah;
4963;334;;Хай-Пойнт;;0.000000;America/New_York;0;35.955680;-80.005680;High Point;;High Point;;High Point;;High Point;;High Point;
2865;53;;Хадыженск;;0.000000;Europe/Moscow;0;44.419495;39.535461;Khadyzhensk;;Jadyzhensk;;Chadyschensk;;Chadyžensk;;Khadyjensk;
5418;50;;Хаддерсфилд;;0.000000;Europe/London;0;53.642970;-1.786090;Huddersfield;;Huddersfield;;Huddersfield;;Huddersfield;;Huddersfield;
5120;348;;Хаген;;0.000000;Europe/Berlin;0;51.357844;7.468160;Hagen;;Hagen;;Hagen;;Hagen;;Hagen;
2385;4;;Хабез;;0.000000;Europe/Moscow;0;44.045491;41.766547;Khabez;;Khabez;;Chabes;;Khabez;;Khabez;
2984;7;;Хабары;;0.000000;Asia/Barnaul;0;53.628047;79.526269;Khabary;;Khabary;;Chabary;;Khabary;;Khabari;
135;188;Хабаровский край;Хабаровск;;0.014243;Asia/Vladivostok;1;48.47483;135.062256;Khabarovsk;Khabarovsk Krai;Jabárovsk;Krai de Jabárovsk;Chabarowsk;Region Chabarowsk;Chabarovsk;Territorio di Chabarovsk;Khabarovsk;Kraï de Khabarovsk
2338;25;Ляэнемаа;Хаапсалу;;0.000003;Europe/Tallinn;1;58.936985;23.561683;Haapsalu;Laane County;Haapsalu;Condado de Laane;Haapsalu;;Haapsalu;;Haapsalu;
5119;343;;Фюрт;;0.000000;Europe/Berlin;0;49.475944;10.952922;Furth;;Furth;;Fürth;;Furth;;Fürth;
4859;308;;Фэрфилд;;0.000000;America/Los_Angeles;0;38.249440;-122.038860;Fairfield;;Fairfield;;Fairfield;;Fairfield;;Fairfield;
1697;248;;Фэннин;;0.000000;Asia/Shanghai;0;41.217000;116.633000;Fengning;;Fengning;;Fengning;;Fengning;;Fengning;
1696;248;;Фучжоу;;0.000000;Asia/Shanghai;0;26.058143;119.336686;Fuzhou;;Fuzhou;;Fuzhou;;Fuzhou;;Fuzhou;
3284;38;;Фурманов;;0.000000;Europe/Moscow;0;57.254748;41.112871;Furmanov;;Furmanov;;Furmanow;;Furmanov;;Fourmanov;
1969;36;;Фуншал;;0.000000;Atlantic/Madeira;0;32.650556;-16.903468;Funchal;;Funchal;;Funchal;;Funchal;;Funchal;
4034;465;;Фунафути;;0.000000;Pacific/Funafuti;0;-8.517000;179.217000;Funafuti;;Funafuti;;Funafuti;;Funafuti;;Funafuti;
1280;243;;Фульен;;0.000000;Asia/Ho_Chi_Minh;0;20.800000;106.633000;Phu Yen;;Phu Yen;;Phu Yen;;Phu Yen;;Phu Yen;
4845;308;;Фуллертон;;0.000000;America/Los_Angeles;0;33.870300;-117.925000;Fullerton;;Fullerton;;Fullerton;;Fullerton;;Fullerton;
2378;77;;Фукуяма;;0.000000;Asia/Tokyo;0;34.450000;133.250000;Fukuyama;;Fukuyama;;Fukuyama;;Fukuyama;;Fukuyama;
2377;77;;Фукуока;;0.000000;Asia/Tokyo;0;33.576260;130.401350;Fukuoka;;Fukuoka;;Fukuoka;;Fukuoka;;Fukuoka;
1279;243;;Фукуок;;0.000000;Asia/Ho_Chi_Minh;0;10.217000;103.967000;Phu Quoc;;Phu Quoc;;Phu Quoc;;Phú Quốc;;Phu Quoc;
2376;77;;Фудзи;;0.000000;Asia/Tokyo;0;35.152880;138.673840;Fuji;;Monte Fuji;;Fuji;;Fuji;;Fuji;
1381;30;;Фуджейра;;0.000000;Asia/Dubai;0;25.100000;56.333000;Fujairah;;Fujairah;;Fudschaira;;Fujaira;;Fujaïrah;
2701;70;;Фрязино;;0.000000;Europe/Moscow;0;55.960992;38.046882;Fryazino;;Friázino;;Frjasino;;Frjazino;;Friazino;
4570;270;;Фрунзовка;;0.000000;Europe/Zaporozhye;0;47.330000;29.752000;Frunzivka;;Frunzivka;;Frunsiwka;;Frunzivka;;Frounzivka;
3145;21;;Фролово;;0.000000;Europe/Volgograd;0;49.773124;43.644915;Frolovo;;Frolovo;;Frolowo;;Frolovo;;Frolovo;
4992;336;;Фриско;;0.000000;America/Chicago;0;33.150700;-96.823600;Frisco;;Frisco;;Frisco;;Frisco;;Frisco;
4821;308;;Фримонт;;0.000000;America/Los_Angeles;0;37.551210;-121.970830;Fremont;;Fremont;;Fremont;;Fremont;;Fremont;
4815;308;;Фресно;;0.000000;America/Los_Angeles;0;36.747700;-119.771060;Fresno;;Fresno;;Fresno;;Fresno;;Fresno;
391;242;Нью-Брансуик;Фредериктон;NB;0.000002;America/Moncton;1;45.944630;-66.657010;Fredericton;New Brunswick;Fredericton;Nuevo Brunswick;Fredericton;New Brunswick;Fredericton;Nuovo Brunswick;Fredericton;Nouveau Brunswick
1311;346;;Франкфурт;;0.000000;Europe/Berlin;0;50.109150;8.677796;Frankfurt;;Frankfurt;;Frankfurt;;Francoforte;;Francfort;
310;200;Кентукки;Франкфорт;KY;0.000003;America/Kentucky/Louisville;1;38.20102;-84.87338;Frankfort;Kentucky;Frankfort;Kentucky;Frankfort;Kentucky;Frankfort;Kentucky;Frankfort;Kentucky
5118;342;;Фрайбург;;0.000000;Europe/Berlin;0;48.001691;7.842997;Freiburg;;Friburgo de Brisgovia;;Freiburg;;Friburgo;;Fribourg;
1224;234;;Фос-ду-Игуасу;;0.000000;America/Sao_Paulo;0;-25.503347;-54.579458;Foz do Iguazu;;Foz do Iguaçu;;Fos-du-Iguasu;;Foz do Iguaçu;;Chutes d'Iguazú;
4939;336;;Форт-Уэрт;;0.000001;America/Chicago;1;32.725230;-97.320470;Fort Worth;;Fort Worth;;Fort Worth;;Fort Worth;;Fort Worth;
4883;307;;Форт-Уэйн;;0.000000;America/Indiana/Indianapolis;0;41.072630;-85.139770;Fort Wayne;;Fort Wayne;;Fort Wayne;;Fort Wayne;;Fort Wayne;
1623;388;;Форт-Нельсон;;0.000000;America/Vancouver;0;58.790680;-122.671380;Fort Nelson;;Fort Nelson;;Fort Nelson;;Fort Nelson;;Fort Nelson;
4946;338;;Форт-Лодердейл;;0.000000;America/New_York;0;26.122000;-80.143520;Fort Lauderdale;;Fort Lauderdale;;Fort Lauderdale;;Fort Lauderdale;;Fort Lauderdale;
4894;311;;Форт-Коллинз;;0.000000;America/Denver;0;40.585520;-105.084270;Fort Collins;;Fort Collins;;Fort Collins;;Fort Collins;;Fort Collins;
1602;362;;Форт Шевченко;;0.000000;Asia/Aqtau;0;44.468568;50.269240;Fort Shevchenko;;Fort Shevchenko;;Fort Schewtschenko;;Fort Ševčenko;;Fort Schewtschenko;
2194;256;;Форос;;0.000000;Europe/Simferopol;0;44.389000;33.786000;Foros;;Foros;;Foros;;Foros;;Foros;
1122;214;;Формоса;;0.000000;America/Argentina/Cordoba;0;-26.097282;-58.212798;Formosa;;Formosa;;Formosa;;Formosa;;Formosa;
5456;45;;Форли;;0.000000;Europe/Rome;0;44.219514;12.037548;Forli;;Forlì;;Forlì;;Forlì;;Forlì;
4825;308;;Фонтана;;0.000000;America/Los_Angeles;0;34.092200;-117.435000;Fontana;;Fontan;;Fontan;;Fontana;;Fontana;
3058;13;;Фокино;;0.000000;Europe/Moscow;0;53.462277;34.425812;Fokino;;Fokino;;Fokino;;Fokino;;Fokino;
3085;18;;Фокино;;0.000000;Asia/Vladivostok;0;42.970104;132.405476;Fokino;;Fokino;;Fokino;;Fokino;;Fokino;
5455;45;;Фоджа;;0.000000;Europe/Rome;0;41.464399;15.551662;Foggia;;Foggia;;Foggia;;Foggia;;Foggia;
4225;191;Флорештский район;Флорешты;;0.000012;Europe/Chisinau;1;47.885960;28.309021;Floresti;Floresti District;Floresti;Distrito de Floresti;Floresti;;Florești;;Floresti;
1295;103;;Флорес;;0.000000;America/Guatemala;0;16.931998;-89.807846;Flores;;Flores;;Flores;;Flores;;Florès;
1502;45;;Флоренция;;0.000000;Europe/Rome;0;43.765577;11.272573;Florence;;Florencia;;Florenz;;Firenza;;Florence;
4906;318;;Флинт;;0.000000;America/Detroit;0;43.012390;-83.687580;Flint;;Flint;;Flint;;Flint;;Flint;
2576;123;;Фирово;;0.000000;Europe/Moscow;0;57.481060;33.700117;Firovo;;Firovo;;Firowo;;Firovo;;Firovo;
295;200;Аризона;Финикс;AZ;0.000073;America/Phoenix;1;33.44813;-112.07317;Phoenix;Arizona;Phoenix;Arizona;Phoenix;Arizona;Phoenix;Arizona;Phoenix;Arizona
2065;331;;Филадельфия;;0.000051;America/New_York;1;39.952100;-75.164370;Philadelphia;;Filadelfia;;Philadelphia;;Philadelphia;;Philadelphie;
2146;76;;Фетхие;;0.000000;Europe/Istanbul;0;36.607455;29.148199;Fethiye;;Fethiye;;Fethiye;;Fethiye;;Fethiye;
1829;154;;Фес;;0.000000;Africa/Casablanca;0;34.050894;-4.946283;Fez;;Fez;;Fez;;Fez;;Fez;
2844;141;;Фершампенуаз;;0.000000;Asia/Yekaterinburg;0;53.508614;59.808045;Fershampenuaz;;Fershampenuaz;;Ferschampenuas;;Fershampenuaz;;Ferchampenouaz;
5454;45;;Феррара;;0.000000;Europe/Rome;0;44.824631;11.636832;Ferrara;;Ferrara;;Ferrara;;Ferrara;;Ferrara;
3402;44;;Ферзиково;;0.000000;Europe/Moscow;0;54.543572;36.742882;Ferzikovo;;Ferzikovo;;Fersikowo;;Ferzikovo;;Ferzikovo;
2166;16;Ферганская область;Фергана;;0.000000;Asia/Tashkent;0;40.394195;71.767678;Fergana;Fergana Region;Ferganá;Provincia de Ferganá;Fargʻona;;Fergana;;Ferghana;
2193;256;;Феодосия;;0.000000;Europe/Simferopol;0;45.033597;35.371424;Feodosia;;Feodosia;;Feodossija;;Feodosia;;Théodosie;
1137;222;;Фени;;0.000000;Asia/Dhaka;0;22.993706;91.407873;Feni;;Feni;;Feni;;Feni;;Feni;
2751;134;;Фёдоровка;;0.000000;Asia/Yekaterinburg;0;53.178706;55.185085;Fyodorovka;;Fyódorovka;;Fjodorowka;;Fëdorovka;;Fiodorovka;
4144;367;;Фёдоровка;;0.000000;Asia/Qyzylorda;0;53.685863;62.706738;Federovka;;Federovka;;Federovka;;Federovka;;Federovka;
4120;374;;Федоровка;;0.000000;Asia/Oral;0;51.146566;51.932488;Fedorovka;;Fedorovka;;Fjodorowka;;Fedorovka;;Fedorovka;
727;57;;Фатеж;;0.000000;Europe/Moscow;0;52.092771;35.853351;Fatezh;;Fatezh;;Fatesch;;Fatež;;Fatej;
4436;265;;Фастов;;0.000000;Europe/Kiev;0;50.074000;29.921540;Fastiv;;Fastiv;;Fastiw;;Fastiv;;Fastiv;
1968;36;;Фару;;0.000000;Europe/Lisbon;0;37.021625;-7.929526;Faro;;Faro;;Faro;;Faro;;Faro;
4993;333;;Фарго;;0.000001;America/Chicago;1;46.875297;-96.796401;Fargo;;Fargo;;Fargo;;Fargo;;Fargo;
1278;243;;Фантхьет;;0.000000;Asia/Ho_Chi_Minh;0;10.936752;108.091223;Phan Thiet;;Phan Thiet;;Phan Thiet;;Phan Thiết;;Phan Thiet;
4224;191;Фалештский район;Фалешты;;0.000023;Europe/Chisinau;1;47.582084;27.713013;Falesti;Falesti District;Falesti;Distrito de Falesti;Falesti;;Fălești;;Falesti;
3465;22;;Фаленки;;0.000000;Europe/Kirov;0;58.359403;51.599170;Falenki;;Falenki;;Falenki;;Falënki;;Falenki;
4920;334;;Файетвилл;;0.000000;America/New_York;0;35.052650;-78.878470;Fayetteville;;Fayetteville;;Fayetteville;;Fayetteville;;Fayetteville;
3527;54;;Уяр;;0.000000;Asia/Krasnoyarsk;0;55.811461;94.333292;Uyar;;Uyar;;Ujar;;Ujar;;Ouïar;
1214;230;;Уюни;;0.000000;America/La_Paz;0;-20.466400;-66.859001;Uyuni;;Uyuni;;Uyuni;;Uyuni;;Uyuni;
4857;308;;Уэст-Ковина;;0.000000;America/Los_Angeles;0;34.068600;-117.939000;West Covina;;West Covina;;West Covina;;West Covina;;West Covina;
4964;341;;Уэст-Джордан;;0.000000;America/Denver;0;40.609700;-111.939000;West Jordan;;West Jordan;;West Jordan;;West Jordan;;West Jordan;
4953;341;;Уэст-Валли-Сити;;0.000000;America/Denver;0;40.696560;-111.967270;West Valley City;;West Valley City;;West Valley City;;West Valley City;;West Valley City;
5417;50;;Уэст-Бромидж;;0.000000;Europe/London;0;52.525000;-2.016000;West Bromwich;;West Bromwich;;West Bromwich;;West Bromwich;;West Bromwich;
510;1;;Уэлен;;0.000000;Asia/Anadyr;0;66.162074;-169.810649;Uelen;;Uelen;;Uelen;;Uėlen;;Ouelen;
4941;336;;Уэйко;;0.000000;America/Chicago;0;31.549370;-97.146200;Waco;;Waco;;Waco;;Waco;;Waco;
1121;214;;Ушуая;;0.000000;America/Argentina/Ushuaia;0;-54.800000;-68.317000;Ushuaia;;Ushuaia;;Ushuaia;;Ushuaia;;Ushuaïa;
4078;383;;Уштобе;;0.000000;Asia/Almaty;0;45.228131;77.974856;Ushtobe;;Ushtobe;;Üschtöbe;;Ushtobe;;Ouchtobe;
5010;287;;Ушачи;;0.000000;Europe/Minsk;0;55.183333;28.616667;Ushachy;;Ushachi;;Uschatschi;;Ušačy;;Ouchatchy;
4077;383;;Ушарал;;0.000000;Asia/Almaty;0;46.141187;80.960667;Usharal;;Usharal;;Üscharal;;Usharal;;Oucharal;
5308;76;;Ушак;;0.000000;Europe/Istanbul;0;38.697816;29.337984;Usak;;Uşak;;Usak;;Uşak;;Usak;
2384;4;;Учкекен;;0.000000;Europe/Moscow;0;43.940583;42.511767;Uchkeken;;Uchkeken;;Utschkeken;;Uchkeken;;Uchkeken;
975;134;;Учалы;;0.000000;Asia/Yekaterinburg;0;54.286191;59.424164;Uchaly;;Uchaly;;Utschaly;;Učaly;;Outchaly;
436;117;;Ухта;;0.000204;Europe/Moscow;1;63.567244;53.701952;Ukhta;;Ujtá;;Uchta;;Uchta;;Oukhta;
3917;105;;Ухолово;;0.000000;Europe/Moscow;0;53.792287;40.482756;Ukholovo;;Ukholovo;;Ucholowo;;Ukholovo;;Oukholovo;
1695;248;;Ухань;;0.000000;Asia/Shanghai;0;30.619176;114.298707;Wuhan;;Wuhan;;Wuhan;;Wuhan;;Wuhan;
134;188;Республика Башкортостан;Уфа;;0.017843;Asia/Yekaterinburg;1;54.721845;55.969197;Ufa;Bashkortostan;Ufá;República de Baskortostán;Ufa;Republik Baschkortostan;Ufa;Repubblica del Baškortostan;Oufa;République de Bachkirie
5367;27;;Утена;;0.000002;Europe/Vilnius;1;55.496736;25.607394;Utena;;Utena;;Utena;;Utena;;Utena;
3637;66;;Усухчай;;0.000000;Europe/Moscow;0;41.423287;47.922283;Usukhchay;;Usukhchay;;Ussuchtschai;;Usukhchay;;Ousoukhtchaï;
573;23;;Устюжна;;0.000000;Europe/Moscow;0;58.840385;36.447851;Ustyuzhna;;Ustiuzhna;;Ustjuschna;;Ustjužna;;Oustioujna;
3163;23;;Устье;;0.000000;Europe/Moscow;0;59.629528;39.728099;Ustye;;Ustye;;Ustje;;Ustye;;Oustye;
2983;7;;Усть-Чарышская Пристань;;0.000000;Asia/Barnaul;0;52.395950;83.661267;Ust-Charyshskaya Pristan;;Ust-Charyshskaya Pristan;;Ust-Tscharyschskaja Pristan;;Ust-Charyshskaya Pristan;;Oust-Tcharychskaïa Pristan;
2504;117;;Усть-Цильма;;0.000000;Europe/Moscow;0;65.440869;52.154628;Ust-Tsilma;;Ust-Tsilma;;Ust-Tsilma;;Ust'-Cil'ma;;Oust-Tsilma;
3327;40;;Усть-Уда;;0.000000;Asia/Irkutsk;0;54.174336;103.032153;Ust-Uda;;Ust-Uda;;Ust-Uda;;Ust'-Uda;;Oust-Ouda;
3682;85;;Усть-Тарка;;0.000000;Asia/Novosibirsk;0;55.569095;75.682614;Ust-Tarka;;Ust-Tarka;;Ust-Tarka;;Ust'-Tarka;;Oust-Tarka;
647;40;;Усть-Ордынский;;0.000000;Asia/Irkutsk;0;52.809512;104.740789;Ust-Ordynsky;;Ust Ordynski;;Ust-Ordynski;;Ust'-Ordynskij;;Ust-Ordynsky;
3604;62;;Усть-Омчуг;;0.000000;Asia/Magadan;0;61.128853;149.626788;Ust-Omchug;;Ust-Omchug;;Ust-Omtschug;;Ust'-Omčug;;Oust-Omtchoug;
2445;146;;Усть-Нера;;0.000000;Asia/Ust-Nera;0;64.561257;143.234345;Ust-Nera;;Ust-Nera;;Ust-Nera;;Ust'-Nera;;Oust-Nera;
2444;146;;Усть-Мая;;0.000000;Asia/Khandyga;0;60.419134;134.533413;Ust-Maya;;Ust-Maya;;Ust-Maja;;Ust'-Maja;;Oust-Maïa;
2874;53;;Усть-Лабинск;;0.000000;Europe/Moscow;0;45.220693;39.670237;Ust-Labinsk;;Ust-Labinsk;;Ust-Labinsk;;Ust'-Labinsk;;Oust-Labinsk;
643;40;;Усть-Кут;;0.000000;Asia/Irkutsk;0;56.790132;105.769195;Ust-Kut;;Ust-Kut;;Ust-Kut;;Ust'-Kut;;Oust-Kout;
929;117;;Усть-Кулом;;0.000000;Europe/Moscow;0;61.686380;53.682401;Ust-Kulom;;Ust-Kulom;;Ust-Kulom;;Ust'-Kulom;;Ust'-Kulom;
3202;282;;Усть-Кокса;;0.000000;Asia/Barnaul;0;50.271726;85.606991;Ust-Koksa;;Ust-Koksa;;Ust-Koksa;;Ust'-Koksa;;Oust-Koksa;
3815;97;;Усть-Кишерть;;0.000000;Asia/Yekaterinburg;0;57.364499;57.249088;Ust-Kishert;;Ust-Kishert;;Ust-Kischert;;Ust-Kishert;;Oust-Kichert;
1005;141;;Усть-Катав;;0.000000;Asia/Yekaterinburg;0;54.940096;58.183933;Ust-Katav;;Ust-Katav;;Ust-Kataw;;Ust'-Katav;;Oust-Katav;
3201;282;;Усть-Кан;;0.000000;Asia/Barnaul;0;50.928622;84.771867;Ust-Kan;;Ust-Kan;;Ust-Kan;;Ust'-Kan;;Oust-Kan;
854;98;;Усть-Камчатск;;0.000000;Asia/Kamchatka;0;56.239031;162.528223;Ust-Kamchatsk;;Ust-Kamchatsk;;Ust-Kamtschatsk;;Ust'-Kamčatsk;;Oust-Kamtchatsk;
375;28;Восточно-Казахстанская область;Усть-Каменогорск;;0.005074;Asia/Almaty;1;49.881601;82.753975;Ust-Kamenogorsk;East Kazakhstan Oblast;Öskemen;Provincia de Kazajistán Oriental;Öskemen;Gebiet Ostkasachstan;Öskemen;Oblys del Kazakistan Orientale;Öskemen;Kazakhstan-Oriental
531;7;;Усть-Калманка;;0.000000;Asia/Barnaul;0;52.123749;83.305102;Ust-Kalmanka;;Ust-Kalmanka;;Ust-Kalmanka;;Ust'-Kalmanka;;Ust'-Kalmanka;
814;92;;Усть-Ишим;;0.000000;Asia/Omsk;0;57.690562;71.165138;Ust-Ishim;;Ust-Ishim;;Ust-Ischim;;Ust'-Išim;;Ust-Ishim;
642;40;;Усть-Илимск;;0.000000;Asia/Irkutsk;0;58.033240;102.820648;Ust-Ilimsk;;Ust-Ilimsk;;Ust-Ilimsk;;Ust'-Ilimsk;;Oust-Ilimsk;
3896;104;;Усть-Донецкий;;0.000000;Europe/Moscow;0;47.640771;40.858673;Ust-Donetsky;;Ust-Donetsky;;Ust-Donezki;;Ust'-Donetskiy;;Oust-Donetski;
1013;4;;Усть-Джегута;;0.000000;Europe/Moscow;0;44.081934;41.975595;Ust-Dzheguta;;Ust-Dzhegutá;;Ust-Dscheguta;;Ust'-Džeguta;;Oust-Djegouta;
3839;98;;Усть-Большерецк;;0.000000;Asia/Kamchatka;0;52.825604;156.272125;Ust-Bolsheretsk;;Ust-Bolsheretsky;;Ust-Bolscherezk;;Ust'-Bol'šereck;;Oust-Bolcheretsk;
968;129;;Усть-Баргузин;;0.000000;Asia/Irkutsk;0;53.414148;109.020095;Ust-Barguzin;;Ust-Barguzin;;Ust-Bargusin;;Ust-Barguzin;;Oust-Bargouzine;
2907;148;;Усть-Абакан;;0.000000;Asia/Krasnoyarsk;0;53.834551;91.376317;Ust-Abakan;;Ust-Abakan;;Ust-Abakan;;Ust-Abakan;;Oust-Abakan;
4456;266;;Устиновка;;0.000000;Europe/Kiev;0;47.950000;32.533000;Ustynivka;;Ustynivka;;Ustyniwka;;Ustynivka;;Oustynivka;
445;60;Устецкий край;Усти-над-Лабем;;0.000004;Europe/Prague;1;50.658326;14.051383;Usti nad Labem;Usti nad Labem Region;Ústí nad Labem;Región de Ústí nad Labem;Aussig;Aussiger Region;Ústí nad Labem;Regione di Ústí nad Labem;Ústí nad Labem;Région d'Ústí nad Labem
543;18;;Уссурийск;;0.002035;Asia/Vladivostok;1;43.804656;131.949750;Ussuriysk;;Ussuriisk;;Ussurijsk;;Ussurijsk;;Oussouriisk;
2876;53;;Успенское;;0.000000;Europe/Moscow;0;44.830475;41.400681;Uspenskoye;;Uspénskoye;;Uspenskoje;;Uspenskoye;;Ouspenskoïe;
4163;369;;Успенка;;0.000000;Asia/Almaty;0;52.918995;77.441005;Uspenka;;Uspenka;;Uspenka;;Uspenka;;Ouspenka;
641;40;;Усолье-Сибирское;;0.000000;Asia/Irkutsk;0;52.764543;103.629080;Usolye-Sibirskoye;;Usolye-Sibirskoye;;Ussolje-Sibirskoje;;Usol'e-Sibirskoe;;Oussolie-Sibirskoïe;
3814;97;;Усолье;;0.000000;Asia/Yekaterinburg;0;59.418573;56.684005;Usolye;;Usolie;;Ussolje;;Usol'e;;Ousolye;
730;58;;Усмань;;0.000000;Europe/Moscow;0;52.040766;39.732223;Usman;;Usman;;Usman;;Usman';;Ousman;
928;117;;Усинск;;0.000000;Europe/Moscow;0;66.002917;57.540986;Usinsk;;Usinsk;;Ussinsk;;Usinsk;;Oussinsk;
1694;248;;Уси;;0.000000;Asia/Shanghai;0;31.516946;120.298908;Wuxi;;Wuxí;;Wuxi;;Wuxi;;Wuxi;
3858;100;;Усвяты;;0.000000;Europe/Moscow;0;55.745544;30.747196;Usvyata;;Usvyata;;Uswjaty;;Usvjaty;;Ousvyata;
568;21;;Урюпинск;;0.000000;Europe/Volgograd;0;50.790038;42.014411;Uryupinsk;;Uriúpinsk;;Urjupinsk;;Urjupinsk;;Ourioupinsk;
3353;42;;Уруссу;;0.000000;Europe/Moscow;0;54.591955;53.453081;Urussu;;Urussu;;Urussu;;Urussu;;Ouroussou;
582;9;;Урус-Мартан;;0.000000;Europe/Moscow;0;43.128131;45.542139;Urus-Martan;;Urús-Martán;;Urus-Martan;;Urus-Martan;;Ourous-Martan;
1693;248;;Урумчи;;0.000000;Asia/Urumqi;0;43.752314;87.567846;Urumqi;;Urumchi;;Urumqi;;Ürümqi;;Ürümqi;
2803;140;;Урмары;;0.000000;Europe/Moscow;0;55.682937;47.944928;Urmary;;Urmary;;Urmary;;Urmary;;Urmary;
3636;66;;Уркарах;;0.000000;Europe/Moscow;0;42.161383;47.633440;Urkarakh;;Urkarakh;;Urkarach;;Urkarakh;;Ourkarakh;
3464;22;;Уржум;;0.000000;Europe/Kirov;0;57.112492;49.996511;Urzhum;;Urzhum;;Urschum;;Uržum;;Ourjoum;
3653;79;;Урень;;0.000000;Europe/Moscow;0;57.463477;45.786236;Uren;;Urén;;Uren;;Uren';;Ouren;
884;172;;Уренгой;;0.000000;Asia/Yekaterinburg;0;65.963237;78.378364;Urengoy;;Urengói;;Urengoi;;Urengoj;;Novy Ourengoï;
4100;375;;Урджар;;0.000000;Asia/Almaty;0;47.042845;81.680815;Urzhar;;Urdzhar;;Urdschar;;Urdzhar;;Ourdjar;
2165;16;Хорезмская область;Ургенч;;0.000000;Asia/Samarkand;0;41.550569;60.679294;Urgench;Xorazm Region;Urgench;Provincia de Corasmia;Urganch;;Urgench;;Ourguentch;
3265;32;;Уральский;;0.000000;Asia/Yekaterinburg;0;56.676524;61.080280;Uralsky;;Uralsky;;Uralski;;Uralskij;;Ouralski;
374;28;Западно-Казахстанская область;Уральск;;0.001077;Asia/Oral;1;51.210607;51.424896;Uralsk;West Kazakhstan Oblast;Oral;Provincia de Kazajistán Occidental;Oral;Gebiet Westkasachstan;Oral;Oblys del Kazakistan Occidentale;Oural;Kazakhstan-Occidental
2375;77;;Уракава;;0.000000;Asia/Tokyo;0;42.168690;142.778960;Urakawa;;Urakawa;;Urakawa;;Urakawa;;Urakawa;
989;11;;Урай;;0.000000;Asia/Yekaterinburg;0;60.116046;64.760191;Uray;;Uray;;Urai;;Uraj;;Ouraï;
3652;79;;Уразовка;;0.000000;Europe/Moscow;0;55.400673;45.619454;Urazovka;;Urazovka;;Urasowka;;Urazovka;;Ourazovka;
2312;48;;Упсала;;0.000000;Europe/Stockholm;0;59.850932;17.640640;Uppsala;;Upsala;;Uppsala;;Uppsala;;Uppsala;
2637;128;;Упорово;;0.000000;Asia/Yekaterinburg;0;56.310064;66.269303;Uporovo;;Uporovo;;Uporowo;;Uporovo;;Ouporovo;
4892;312;;Уотербери;;0.000000;America/New_York;0;41.558200;-73.051640;Waterbury;;Waterbury;;Waterbury;;Waterbury;;Waterbury;
4904;318;;Уоррен;;0.000000;America/Detroit;0;42.477540;-83.028060;Warren;;Warren;;Warren;;Warren;;Warren;
5416;50;;Уолсолл;;0.000000;Europe/London;0;52.580000;-1.980000;Walsall;;Walsall;;Walsall;;Walsall;;Walsall;
3635;66;;Унцукуль;;0.000000;Europe/Moscow;0;42.710985;46.791823;Untsukul;;Untsukul;;Untsukul;;Untsukul';;Ountsoukoul;
3463;22;;Уни;;0.000000;Europe/Kirov;0;57.754834;51.487933;Uni;;Uni;;Uni;;Uni;;Ouni;
3057;13;;Унеча;;0.000000;Europe/Moscow;0;52.848495;32.687682;Unecha;;Unecha;;Unetscha;;Uneča;;Ounetcha;
1856;161;;Ундерхаан;;0.000000;Asia/Ulaanbaatar;0;47.298142;110.804432;Ondorhaan;;Öndörkhaan;;Öndörchaan;;Ôndôrhaan;;Ondorkhaan;
4223;191;Унгенский район;Унгены;;0.000016;Europe/Chisinau;1;47.219900;27.803967;Ungheni;Ungheni District;Ungheni;Distrito de Ungheni;Ungheni;;Ungheni;;Ungheni;
1565;133;;Умм аль Джималь;;0.000000;Asia/Amman;0;32.355000;36.365000;Umm el-Jimal;;Umm el-Jimal;;Umm al-Jimal;;Umm el-Jimal;;Um el-Jimal;
2527;120;;Умет;;0.000000;Europe/Moscow;0;52.561420;42.972598;Umet;;Umet;;Umjot;;Umët;;Oumet;
2780;71;;Умба;;0.000000;Europe/Moscow;0;66.676393;34.339527;Umba;;Umba;;Umba;;Umba;;Oumba;
4724;279;;Умань;;0.000000;Europe/Kiev;0;48.747850;30.227460;Uman;;Uman;;Uman;;Uman';;Ouman;
130;188;Ульяновская область;Ульяновск;;0.004190;Europe/Ulyanovsk;1;54.303304;48.365284;Ulyanovsk;Ulyanovsk Oblast;Uliánovsk;Óblast de Uliánovsk;Uljanowsk;Oblast Uljanowsk;Ul'janovsk;Oblast' di Ul'janovsk;Oulianovsk;Oblast d'Oulianovsk
3401;44;;Ульяново;;0.000000;Europe/Moscow;0;53.720524;35.531924;Ulyanovo;;Ulyanovo;;Uljanowo;;Ulyanovo;;Oulianovo;
4455;266;;Ульяновка;;0.000000;Europe/Kiev;0;48.330000;30.232000;Ulianovka;;Ulyanivka;;Uljanowka;;Ul'janovsk;;Oulianivka;
2278;156;;Ульцинь;;0.000000;Europe/Podgorica;0;41.917000;19.217000;Ulcinj;;Ulcinj;;Ulcinj;;Dulcigno;;Ulcinj;
5117;342;;Ульм;;0.000000;Europe/Berlin;0;48.410733;9.986737;Ulm;;Ulm;;Ulm;;Ulma;;Ulm;
1594;375;;Улькен-Нарым;;0.000000;Asia/Almaty;0;49.229499;84.565666;Ulken-Narym;;Ulken-Narym;;Ulken Narym;;Ulken Narym;;Ulken-Narym;
4129;366;;Улытау;;0.000000;Asia/Almaty;0;48.657959;67.040240;Ulytau;;Ulytau;;Ulytau;;Ulytau;;Oulitaou;
2145;76;;Улудаг;;0.000000;Europe/Istanbul;0;40.096000;29.174000;Uludag;;Ulu Dag;;Uludag;;Olimpo della Misia;;Uludag;
2408;144;;Улеты;;0.000000;Asia/Chita;0;51.358995;112.484409;Ulety;;Ulety;;Uljoty;;Ulety;;Ulety;
1855;161;;Улгий;;0.000000;Asia/Hovd;0;48.933000;89.933000;Olgii;;Olgiu;;Ölgii;;Olgiu;;Olgiu;
129;188;Республика Бурятия;Улан-Удэ;;0.005344;Asia/Irkutsk;1;51.81781;107.581167;Ulan-Ude;Buryatia;Ulán-Udé;República de Buriatia;Ulan-Ude;Republik Burjatien;Ulan-Udė;Repubblica di Buriazia;Oulan-Oude;République de Bouriatie
1854;161;;Улан-Батор;;0.000000;Asia/Ulaanbaatar;0;47.890908;107.006483;Ulan Bator;;Ulán Bator;;Ulaanbaatar;;Ulan Bator;;Oulan-Bator;
3200;282;;Улаган;;0.000000;Asia/Barnaul;0;50.633048;87.963904;Ulagan;;Ulagan;;Ulagan;;Ulagan;;Oulagan;
1853;161;;Улаангом;;0.000000;Asia/Hovd;0;49.983000;92.083000;Ulaangom;;Ulaangom;;Ulaangom;;Ulaangom;;Ulaangom;
4435;265;;Украинка;;0.000000;Europe/Kiev;0;50.153000;30.743000;Ukrainka;;Ukrainka;;Ukrajinka;;Ukrainka;;Oukraïnka;
2843;141;;Уйское;;0.000000;Asia/Yekaterinburg;0;54.373133;59.988319;Uyskoye;;Uyskoye;;Uiskoje;;Ujskoe;;Ouïskoïe;
4940;336;;Уичито-Фолс;;0.000000;America/Chicago;0;33.913540;-98.493050;Wichita Falls;;Wichita Falls;;Wichita Falls;;Wichita Falls;;Wichita Falls;
4885;309;;Уичито;;0.000000;America/Chicago;0;37.692260;-97.337360;Wichita;;Wichita;;Wichita;;Wichita;;Wichita;
5196;388;;Уистлер;;0.000000;America/Vancouver;0;50.121000;-122.955000;Whistler;;Whistler;;Whistler;;Whistler;;Whistler;
4918;334;;Уинстон-Сейлем;;0.000000;America/New_York;0;36.099700;-80.244260;Winston-Salem;;Winston-Salem;;Winston-Salem;;Winston-Salem;;Winston-Salem;
5429;389;;Уинсор;;0.000000;America/Toronto;0;42.297470;-83.056080;Windsor;;Windsor;;Schloss Windsor;;Windsor;;Windsor;
3813;97;;Уинское;;0.000000;Asia/Yekaterinburg;0;56.881376;56.577891;Uinskoye;;Uinskoye;;Uinskoje;;Uinskoye;;Ouïnskoïe;
4965;334;;Уилмингтон;;0.000000;America/New_York;0;34.225410;-77.945180;Wilmington;;Wilmington;;Wilmington;;Wilmington;;Wilmington;
4058;363;;Уил;;0.000000;Asia/Aqtobe;0;49.102463;54.680973;Uil;;Uil;;Uil;;Uil;;Ouïl;
4076;383;;Узунагач;;0.000000;Asia/Almaty;0;43.630366;76.395050;Uzunagach;;Uzynagash;;Usun-Agatsch;;Uzynagash;;Ouzounagatch;
2617;127;;Узловая;;0.000000;Europe/Moscow;0;53.983199;38.157801;Uzlovaya;;Uzlovaya;;Uslowaja;;Uzlovaja;;Ouzlovaïa;
4434;265;;Узин;;0.000000;Europe/Kiev;0;49.821720;30.425790;Uzyn;;Uzin;;Usyn;;Uzyn;;Ouzyn;
5053;285;;Узда;;0.000000;Europe/Minsk;0;53.466111;27.224444;Uzda;;Uzda;;Usda;;Uzda;;Ouzda;
1644;34;;Узген;;0.000000;Asia/Bishkek;0;40.767000;73.300000;Uzgen;;Uzgen;;Ösgön;;Uzgen;;Uzgen;
3526;54;;Ужур;;0.000000;Asia/Krasnoyarsk;0;55.314061;89.833325;Uzhur;;Uzhur;;Uschur;;Užur;;Oujour;
262;196;Закарпатская область;Ужгород;;0.000730;Europe/Uzhgorod;1;48.624065;22.287210;Uzhhorod;Zakarpattia Oblast;Úzhgorod;Óblast de Zakarpatia;Uschhorod;Transkarpatien;Užhorod;Oblast' di Transcarpazia;Oujgorod;Oblast de Transcarpatie
2575;123;;Удомля;;0.000000;Europe/Moscow;0;57.877279;34.992551;Udomlya;;Udomlya;;Udomlja;;Udomlja;;Oudomlia;
2443;146;;Удачный;;0.000000;Asia/Yakutsk;0;66.406602;112.305429;Udachny;;Udachni;;Udatschny;;Udačnyj;;Oudatchny;
1434;122;;Удайпур;;0.000000;Asia/Kolkata;0;24.625060;73.761509;Udaipur;;Udaipur;;Udaipur;;Udaipur;;Udaipur;
2539;112;;Угра;;0.000000;Europe/Moscow;0;54.776396;34.325547;Ugra;;Ugra;;Ugra;;Ugra;;Ougra;
2896;1;;Угольные Копи;;0.000000;Asia/Anadyr;0;64.742242;177.681630;Ugolnye Kopi;;Ugolnyye Kopi;;Ugolnyje Kopi;;Ugol'nye Kopi;;Ougolnye Kopi;
2982;7;;Угловское;;0.000000;Asia/Barnaul;0;51.360355;80.191089;Uglovskoye;;Uglovskoye;;Uglowskoje;;Uglovskoye;;Ouglovskoïe;
1063;147;;Углич;;0.000000;Europe/Moscow;0;57.512709;38.336012;Uglich;;Úglich;;Uglitsch;;Uglič;;Ouglitch;
4334;260;;Угледар;;0.000000;Europe/Zaporozhye;0;47.783000;37.250000;Vuhledar;;Vuhledar;;Wuhledar;;Vuhledar;;Vouhledar;
1038;145;;Углегорск;;0.000000;Asia/Sakhalin;0;49.076305;142.060339;Uglegorsk;;Uglegorsk;;Uglegorsk;;Uglegorsk;;Ouglegorsk;
3028;10;;Углегорск;;0.000000;Asia/Yakutsk;0;51.763048;128.117769;Uglegorsk;;Uglegorsk;;Uglegorsk;;Uglegorsk;;Ouglegorsk;
2842;141;;Увельский;;0.000000;Asia/Yekaterinburg;0;54.439607;61.352308;Uvelsky;;Uvelskiy;;Uwelski;;Uvel'skij;;Ouvelski;
2636;128;;Уват;;0.000000;Asia/Yekaterinburg;0;59.147180;68.889749;Uvat;;Uvat;;Uwat;;Uvat;;Ouvat;
934;120;;Уварово;;0.000000;Europe/Moscow;0;51.963388;42.254999;Uvarovo;;Uvárovo;;Uwarowo;;Uvarovo;;Ouvarovo;
3286;39;;Ува;;0.000000;Europe/Samara;0;56.984147;52.186561;Uva;;Uva;;Uwa;;Uva;;Ouva;
1558;119;;Убуд;;0.000000;Asia/Makassar;0;-8.500000;115.267000;Ubud;;Ubud;;Ubud;;Ubud;;Ubud;
3681;85;;Убинское;;0.000000;Asia/Novosibirsk;0;55.299599;79.685982;Ubinskoye;;Ubinskoye;;Ubinskoje;;Ubinskoe;;Oubinskoïe;
4143;367;;Убаганское;;0.000000;Asia/Qyzylorda;0;53.080556;64.294167;Ubaganskoye;;Ubaganskoye;;Ubaganskoje;;Ubaganskoye;;Oubaganskoïe;
1828;154;;Уарзазат;;0.000000;Africa/Casablanca;0;30.933000;-6.900000;Ouarzazate;;Uarzazate;;Ouarzazate;;Ouarzazate;;Ouarzazate;
395;242;Юкон;Уайтхорс;YT;0.000000;America/Whitehorse;1;60.734780;-135.097659;Whitehorse;Yukon;Whitehorse;Yukón;Whitehorse;Yukon;Whitehorse;Yukon;Whitehorse;Yukon
1227;238;;Уагадугу;;0.000000;Africa/Ouagadougou;0;12.357822;-1.515610;Ouagadougou;;Ouagadougou;;Ouagadougou;;Ouagadougou;;Ouagadougou;
4368;262;;Тячев;;0.000000;Europe/Uzhgorod;0;48.015000;23.570000;Tyachiv;;Tyachiv;;Tjatschiw;;Tjačiv;;Tyatchiv;
1692;248;;Тяньцзинь;;0.000000;Asia/Shanghai;0;39.091212;117.222350;Tianjin;;Tianjín;;Tianjin;;Tientsin;;Tianjin;
1643;34;;Тянь-Шань;;0.000000;Asia/Bishkek;0;41.883000;78.233000;Tien Shan;;Tian Shan;;Tian Shan;;Tien Shan;;Monts Tian;
3427;46;;Тяжинский;;0.000000;Asia/Novokuznetsk;0;56.117105;88.525541;Tyazhinsky;;Tyazhinskiy;;Tjaschinski;;Tyazhinskij;;Tiajinski;
3525;54;;Тюхтет;;0.000000;Asia/Krasnoyarsk;0;56.540384;89.318021;Tyukhtet;;Tyukhtet;;Tjuchtet;;Tjuchtet;;Tioukhtet;
5220;34;;Тюп;;0.000000;Asia/Bishkek;0;42.730000;78.360000;Tyup;;Tyup;;Tyup;;Tup;;Tyup;
128;188;Тюменская область;Тюмень;;0.011187;Asia/Yekaterinburg;1;57.138665;65.549407;Tyumen;Tyumen Oblast;Tiumén;Óblast de Tiumén;Tjumen;Oblast Tjumen;Tjumen';Oblast' di Tjumen';Tioumen;Oblast de Tioumen
2981;7;;Тюменцево;;0.000000;Asia/Barnaul;0;53.326667;81.515644;Tyumentsevo;;Tyumentsevo;;Tjumentsewo;;Tyumentsevo;;Tyumentsevo;
3341;42;;Тюлячи;;0.000000;Europe/Moscow;0;55.890667;50.233776;Tyulyachi;;Tyulyachi;;Tjuljatschi;;Tyulyachi;;Tioulyatchi;
3766;94;;Тюльган;;0.000000;Asia/Yekaterinburg;0;52.338894;56.163051;Tyulgan;;Tyulgan;;Tjulgan;;Tjul'gan;;Tioulgan;
3712;92;;Тюкалинск;;0.000000;Asia/Omsk;0;55.857906;72.185954;Tyukalinsk;;Tyukalinsk;;Tjukalinsk;;Tjukalinsk;;Tioukalinsk;
3580;12;;Тээли;;0.000000;Asia/Krasnoyarsk;0;51.011757;90.203612;Teeli;;Teeli;;Teeli;;Teeli;;Teeli;
5264;37;;Тыхы;;0.000000;Europe/Warsaw;0;50.137200;18.966400;Tychy;;Tychy;;Tychy;;Tychy;;Tychy;
804;75;;Тырныауз;;0.000000;Europe/Moscow;0;43.383875;42.915835;Tyrnyauz;;Tyrnyauz;;Tyrnyaus;;Tyrnyauz;;Tyrnyaouz;
539;10;;Тында;;0.000000;Asia/Yakutsk;0;55.157015;124.722311;Tynda;;Tynda;;Tynda;;Tynda;;Tynda;
1037;145;;Тымовское;;0.000000;Asia/Sakhalin;0;50.847173;142.663911;Tymovskoye;;Tymovskoye;;Tymowskoje;;Tymovskoye;;Tymovskoïe;
1277;243;;Тхотю;;0.000000;Asia/Phnom_Penh;0;9.283000;103.467000;Tho Chu;;Tho Chu;;Tho Chu;;Tho Chu;;Tho Chu;
1229;229;;Тхимпху;;0.000000;Asia/Thimphu;0;27.493665;89.729449;Thimphu;;Thimphu;;Thimphu;;Thimphu;;Thimphou;
1276;243;;Тханьхоа;;0.000000;Asia/Ho_Chi_Minh;0;19.779214;105.815412;Thanh Hoa;;Thanh Hoa;;Thanh Hoa;;Thanh Hóa;;Thanh Hoa;
1931;179;;Туфи;;0.000000;Pacific/Port_Moresby;0;-9.080000;149.317000;Tufi;;Tufi;;Tufi;;Tufi;;Tufi;
712;54;;Тутончаны;;0.000000;Asia/Krasnoyarsk;0;64.208621;93.794793;Tutonchany;;Tutonchani;;Tutontschana;;Tutončany;;Tutonchany;
1433;122;;Тутикорин;;0.000000;Asia/Kolkata;0;8.797155;78.141062;Tuticorin;;Thoothukudi;;Tutikorin;;Thoothukudi;;Thoothukudi;
1062;147;;Тутаев;;0.000000;Europe/Moscow;0;57.871400;39.525044;Tutayev;;Tutáyev;;Tutajew;;Tutaev;;Toutaïev;
2064;295;;Тусон;;0.000000;America/Phoenix;0;32.219710;-110.958110;Tucson;;Tucson;;Tucson;;Tucson;;Tucson;
1691;248;;Турфан;;0.000000;Asia/Urumqi;0;42.896002;89.205795;Turpan;;Turfán;;Turfan;;Turfan;;Tourfan;
711;54;;Туруханск;;0.000000;Asia/Krasnoyarsk;0;65.797853;87.953923;Turukhansk;;Turujansk;;Turuchansk;;Turuchansk;;Touroukhansk;
2662;129;;Турунтаево;;0.000000;Asia/Irkutsk;0;52.201789;107.649357;Turuntayevo;;Turuntayevo;;Turuntajewo;;Turuntayevo;;Turuntayevo;
2080;17;;Турсунзаде;;0.000000;Asia/Dushanbe;0;38.511000;68.233000;Tursunzoda;;Tursunzoda;;Tursunsoda;;Tursunzoda;;Tursunzoda;
3199;282;;Турочак;;0.000000;Asia/Barnaul;0;52.254726;87.119074;Turochak;;Turochaksky;;Turotschak;;Turočak;;Tourotchak;
2226;35;;Турку;;0.000000;Europe/Helsinki;0;60.454143;22.275722;Turku;;Turku;;Turku;;Turku;;Turku;
2117;33;;Туркменбаши;;0.000000;Asia/Ashgabat;0;40.026645;53.081966;Turkmenbashi;;Turkmenbashi;;Türkmenbasy;;Türkmenbaşy;;Turkmenbasy;
5174;33;;Туркменабад;;0.000000;Asia/Ashgabat;0;39.099867;63.581378;Turkmenabat;;Türkmenabat;;Türkmenabat;;Turkmenabad;;Turkmenabat;
4020;109;;Турки;;0.000000;Europe/Saratov;0;51.984263;43.272475;Turki;;Turki;;Turki;;Turki;;Tourki;
1601;372;;Туркестан;;0.000000;Asia/Almaty;0;43.279569;68.260475;Turkestan;;Turquestán;;Turkestan;;Turkestan;;Turkestan;
4524;268;;Турка;;0.000000;Europe/Uzhgorod;0;49.157000;23.022000;Turka;;Turka;;Turka;;Turka;;Tourka;
3264;32;;Туринская Слобода;;0.000000;Asia/Yekaterinburg;0;57.612821;64.383373;Turinskaya Sloboda;;Turinskaya Sloboda;;Turinskaja Sloboda;;Turinskaya Sloboda;;Tourinskaïa Sloboda;
3263;32;;Туринск;;0.000000;Asia/Yekaterinburg;0;58.039660;63.699082;Turinsk;;Turinsk;;Turinsk;;Turinsk;;Tourinsk;
1501;45;;Турин;;0.000000;Europe/Rome;0;45.060617;7.686185;Turin;;Turín;;Turin;;Torino;;Turin;
4272;258;;Турийск;;0.000000;Europe/Uzhgorod;0;51.088000;24.524000;Turiysk;;Turiisk;;Turijsk;;Turijs'k;;Touriïsk;
5307;76;;Тургутлу;;0.000000;Europe/Istanbul;0;38.505650;27.752996;Turgutlu;;Turgutlu;;Turgutlu;;Turgutlu;;Turgutlu;
4142;367;;Тургай;;0.000000;Asia/Qyzylorda;0;49.642874;63.492905;Turgay;;Turgay;;Turgay;;Turgay;;Tourgaï;
3579;12;;Туран;;0.000000;Asia/Krasnoyarsk;0;52.143727;93.925403;Turan;;Turán;;Turan;;Turan;;Touran;
710;54;;Тура;;0.000000;Asia/Krasnoyarsk;0;64.276878;100.203668;Tura;;Tura;;Tura;;Tura;;Tura;
5165;47;;Тур;;0.000000;Europe/Paris;0;47.389780;0.694000;Tours;;Tours;;Tours;;Tours;;Tours;
2407;144;;Тупик;;0.000000;Asia/Chita;0;54.424266;119.938272;Tupik;;Tupik;;Tupik;;Tupik;;Tupik;
2113;216;;Тунис;;0.000000;Africa/Tunis;0;36.772349;10.262671;Tunisia;;Túnez;;Tunesien;;Tunisia;;Tunisie;
1941;178;;Тумбес;;0.000000;America/Lima;0;-3.576716;-80.413971;Tumbes;;Tumbes;;Tumbes;;Tumbes;;Tumbes;
4785;105;;Тума;;0.000000;Europe/Moscow;0;55.151652;40.548721;Tuma;;Tuma;;Tuma;;Tuma;;Tuma;
4252;257;;Тульчин;;0.000000;Europe/Kiev;0;48.677230;28.841360;Tulchyn;;Tulchin;;Tultschyn;;Tul'chyn;;Toultchyn;
2880;64;;Тульский;;0.000000;Europe/Moscow;0;44.515206;40.172909;Tulsky;;Tulskiy;;Tulski;;Tul'skij;;Toulski;
640;40;;Тулун;;0.000000;Asia/Irkutsk;0;54.564869;100.559501;Tulun;;Tulún;;Tulun;;Tulun;;Touloun;
2261;47;;Тулуза;;0.000000;Europe/Paris;0;43.608350;1.435600;Toulouse;;Toulouse;;Toulouse;;Tolosa;;Toulouse;
839;97;;Тулпан;;0.000000;Asia/Yekaterinburg;0;61.360105;57.412367;Tulpan;;Tulpan;;Tulpan;;Tulpan;;Tulpan;
2260;47;;Тулон;;0.000000;Europe/Paris;0;43.126000;5.926000;Toulon;;Tolón;;Toulon;;Tolone;;Toulon;
1804;157;;Тулиара;;0.000000;Indian/Antananarivo;0;-23.383000;43.733000;Toliara;;Toliara;;Toliara;;Toliara;;Toliara;
127;188;Тульская область;Тула;;0.002199;Europe/Moscow;1;54.186261;37.614343;Tula;Tula Oblast;Tula;Óblast de Tula;Tula;Oblast Tula;Tula;Oblast' di Tula;Toula;Oblast de Toula
5330;26;;Тукумс;;0.000006;Europe/Riga;1;56.965679;23.170222;Tukums;;Tukums;;Tukums;;Tukums;;Tukums;
2750;134;;Туймазы;;0.000000;Asia/Yekaterinburg;0;54.601297;53.707932;Tuymazy;;Tuymazy;;Tuimasy;;Tujmazy;;Touïmazy;
3462;22;;Тужа;;0.000000;Europe/Kirov;0;57.605362;47.930880;Tuzha;;Tuzha;;Tuscha;;Tuzha;;Touja;
3262;32;;Тугулым;;0.000000;Asia/Yekaterinburg;0;57.059231;64.643134;Tugulym;;Tugulym;;Tugulym;;Tugulym;;Tougoulim;
698;53;;Туапсе;;0.000000;Europe/Moscow;0;44.105630;39.077750;Tuapse;;Tuapsé;;Tuapse;;Tuapse;;Touapsé;
1803;157;;Туамасина;;0.000000;Indian/Antananarivo;0;-18.163340;49.370986;Toamasina;;Toamasina;;Toamasina;;Toamasina;;Toamasina;
1690;248;;Тсетанг;;0.000000;Asia/Harbin;0;29.267000;91.767000;Tsetang;;Zedangzhen;;Tsedang;;Tsedang;;Tsetang;
1940;178;;Трухильо;;0.000000;America/Lima;0;-8.083523;-79.023682;Trujillo;;Trujillo;;Trujillo;;Trujillo;;Trujillo;
2181;268;;Трускавец;;0.000000;Europe/Uzhgorod;0;49.280000;23.505000;Truskavets;;Truskavets;;Truskawez;;Truskavec';;Truskavets;
4776;53;;Трудобеликовский;;0.000000;Europe/Moscow;0;45.268690;38.164655;Trudobelikovskiy;;Trudobelikovskiy;;Trudobelikowski;;Trudobelikovskiy;;Trudobelikovskiy;
3056;13;;Трубчевск;;0.000000;Europe/Moscow;0;52.578086;33.766311;Trubchevsk;;Trubchevsk;;Trubtschewsk;;Trubčevsk;;Troubtchevsk;
5187;387;;Труа-Ривьер;;0.000000;America/Toronto;0;46.351640;-72.586572;Trois-Rivieres;;Trois-Rivières;;Trois-Rivières;;Trois-Rivières;;Trois-Rivières;
4251;257;;Тростянец;;0.000000;Europe/Kiev;0;48.512000;29.227000;Trostyanets;;Trostianets;;Trostjanez;;Trostyanets;;Trostianets;
4625;274;;Тростянец;;0.000000;Europe/Kiev;0;50.478000;34.965000;Trostyanets;;Trostianets;;Trostjanez;;Trostjanec;;Trostianets;
